{
{ "type": "Feature", "properties": { "evid": 1, "ex_type": "OGRAB", "exident": "ограбление организации", "date": "2017\/08\/21", "time": "вечер", "link": "http:\/\/www.e1.ru\/news\/spool\/news_id-475235.html", "link2": null, "descrip": "Разгромили ювелирный магазин. Грабителей поймали на Пермской трассе.", "address": "ул. Пехотинцев, 5", "place": "point" }, "geometry": { "type": "Point", "coordinates": [ 60.554127199175156, 56.870147205686486 ] } },
{ "type": "Feature", "properties": { "evid": 3, "ex_type": "PADOK", "exident": "падение из окна", "date": "2017\/08\/26", "time": "утро", "link": "http:\/\/www.e1.ru\/news\/spool\/news_id-475806.html", "link2": null, "descrip": "Девушка выпала из окна многоэтажки на козырек подъезда. Жива, в реанимации.", "address": "ул. Викулова, д. 35", "place": "area" }, "geometry": { "type": "Point", "coordinates": [ 60.546799009180177, 56.833005065799256 ] } },
{ "type": "Feature", "properties": { "evid": 4, "ex_type": "PADOK", "exident": "падение из окна", "date": "2017\/08\/28", "time": null, "link": "http:\/\/www.e1.ru\/news\/spool\/news_id-475911.html", "link2": null, "descrip": "Из окна многоэтажки выпала женщина. Криминала нет.", "address": "ул. Алтайская, д. 62", "place": "point" }, "geometry": { "type": "Point", "coordinates": [ 60.681506752856798, 56.782109073575647 ] } },
{ "type": "Feature", "properties": { "evid": 5, "ex_type": "VANDL", "exident": "вандализм", "date": "2017\/01\/03", "time": "ночь", "link": "http:\/\/www.justmedia.ru\/news\/events\/kommunalnye_vojny_huligany_izurodovali_rabochuyu_mashinu_upravlyayushhej_kompanii_ekaterinburga", "link2": null, "descrip": "Разбиты стекла в машине УК «Лига ЖКХ», подбросили селедку.", "address": "пр. Ленина, д. 69\/2", "place": "point" }, "geometry": { "type": "Point", "coordinates": [ 60.620533235527077, 56.841149587733845 ] } },
{ "type": "Feature", "properties": { "evid": 7, "ex_type": "ANOML", "exident": "аномалия", "date": "2017\/09\/06", "time": "ночь", "link": "http:\/\/ngzt.ru\/accidents\/view\/06-09-2017-v-aeroportu-ekaterinburga-ekipaj-samoleta-pytalis-oslepit-lazerom", "link2": null, "descrip": "ослепление лазером пилота", "address": "аэропорт Кольцово", "place": "area" }, "geometry": { "type": "Point", "coordinates": [ 60.699919568955039, 56.753945370149367 ] } },
{ "type": "Feature", "properties": { "evid": 8, "ex_type": "ANOML", "exident": "аномалия", "date": "2017\/09\/06", "time": "ночь", "link": "http:\/\/www.e1.ru\/news\/spool\/news_id-476583.html", "link2": null, "descrip": "Безответственный хозяин привязывает коня на ночь к столбу на улице.", "address": "ул. Волгоградская, 86", "place": "point" }, "geometry": { "type": "Point", "coordinates": [ 60.577355161961933, 56.805123638723771 ] } },
{ "type": "Feature", "properties": { "evid": 9, "ex_type": "TERCO", "exident": "территориальный конфликт", "date": "2017\/09\/06", "time": "ночь", "link": "http:\/\/www.e1.ru\/news\/spool\/news_id-476579.html", "link2": null, "descrip": "Конфликт жильцов и детсада вокруг детской площадки во дворе новостройки.", "address": "ул. Ильича, д. 42Б", "place": "area" }, "geometry": { "type": "Point", "coordinates": [ 60.606256214479444, 56.894484286051814 ] } },
{ "type": "Feature", "properties": { "evid": 10, "ex_type": "RAZBJ", "exident": "разбой, грабеж", "date": "2017\/09\/07", "time": "ночь", "link": "http:\/\/www.e1.ru\/news\/spool\/news_id-476598.html", "link2": null, "descrip": "13 неизвестных с битами избили охрану и похитили товар из Связного и Билайн.", "address": "ул. Амундсена, д. 65", "place": "point" }, "geometry": { "type": "Point", "coordinates": [ 60.580726849296703, 56.795876258226599 ] } },
{ "type": "Feature", "properties": { "evid": 11, "ex_type": "OGRAB", "exident": "ограбление организации", "date": "2017\/09\/08", "time": "07:30:00", "link": "http:\/\/www.e1.ru\/news\/spool\/news_id-476682.html", "link2": null, "descrip": "Ограбили салон Евросеть.", "address": "ул. Белореченская, д. 28", "place": "point" }, "geometry": { "type": "Point", "coordinates": [ 60.562758182092786, 56.81675485116557 ] } },
{ "type": "Feature", "properties": { "evid": 12, "ex_type": "PRCHE", "exident": "пропал человек", "date": "2017\/09\/06", "time": null, "link": "http:\/\/www.e1.ru\/news\/spool\/news_id-476847.html", "link2": null, "descrip": "Неизвестные похитили женщину и вымогают у её мужа деньги, угнали газель.", "address": "ул. Красных партизан, д. 1", "place": "area" }, "geometry": { "type": "Point", "coordinates": [ 60.589053185883238, 56.888990999702465 ] } },
{ "type": "Feature", "properties": { "evid": 13, "ex_type": "PADOK", "exident": "падение из окна", "date": "2017\/09\/11", "time": null, "link": "http:\/\/www.justmedia.ru\/news\/events\/na_kolmogorova_39letnyaya_zhenshhina_vybrosilas_iz_okna_pyatogo_etazha", "link2": null, "descrip": "Выпала с пятого этажа женщина, пыталась расцарапать себе горло. Госпитализирована.", "address": "ул. Колмогорова, д. 56", "place": "point" }, "geometry": { "type": "Point", "coordinates": [ 60.57140652456907, 56.849572554171267 ] } },
{ "type": "Feature", "properties": { "evid": 14, "ex_type": "OGRAB", "exident": "ограбление организации", "date": "2017\/09\/14", "time": "04:25:00", "link": "http:\/\/vedomosti-ural.ru\/news\/60607\/", "link2": null, "descrip": "Ограбление салона сотовой связи.", "address": "ул. Викулова, д. 38\/2", "place": "point" }, "geometry": { "type": "Point", "coordinates": [ 60.544797960165894, 56.83165305031126 ] } },
{ "type": "Feature", "properties": { "evid": 15, "ex_type": "ANOML", "exident": "аномалия", "date": "2017\/09\/13", "time": "20:15:00", "link": "http:\/\/www.e1.ru\/news\/spool\/news_id-477026.html", "link2": null, "descrip": "Девушка провалилась в неогороженную яму возле стройки.", "address": "ул. Бебеля, д. 132А", "place": "point" }, "geometry": { "type": "Point", "coordinates": [ 60.554401272058655, 56.85451598618647 ] } },
{ "type": "Feature", "properties": { "evid": 16, "ex_type": "OGRAB", "exident": "ограбление организации", "date": "2017\/09\/18", "time": "05:00:00", "link": "http:\/\/ngzt.ru\/accidents\/view\/18-09-2017-v-ekaterinburge-snova-napali-na-salon-evroseti", "link2": null, "descrip": "Ограбили салон Евросеть.", "address": "ул. Сухоложская, д. 4\/1", "place": "point" }, "geometry": { "type": "Point", "coordinates": [ 60.611492413463857, 56.776113134879722 ] } },
{ "type": "Feature", "properties": { "evid": 17, "ex_type": "VANDL", "exident": "вандализм", "date": "2017\/09\/17", "time": null, "link": "http:\/\/www.e1.ru\/news\/spool\/news_id-477315.html", "link2": null, "descrip": "Разбит гипсовый памятник «Папа, ты где?»", "address": "ул. Анучина, д. 6", "place": "point" }, "geometry": { "type": "Point", "coordinates": [ 60.819442129440205, 56.908883412076243 ] } },
{ "type": "Feature", "properties": { "evid": 18, "ex_type": "NELEG", "exident": "нелегалы \/ задержания", "date": "2017\/09\/21", "time": null, "link": "http:\/\/www.e1.ru\/news\/spool\/news_id-477606.html", "link2": null, "descrip": "Омон арестовал нелегальных мигрантов, подделка документов.", "address": "ул. Завокзальная, д. 26", "place": "area" }, "geometry": { "type": "Point", "coordinates": [ 60.599939576440811, 56.865467135069515 ] } },
{ "type": "Feature", "properties": { "evid": 19, "ex_type": "OGRAB", "exident": "ограбление организации", "date": "2017\/09\/19", "time": "раннее утро", "link": "http:\/\/www.e1.ru\/news\/spool\/news_id-477425.html", "link2": null, "descrip": "ограбление салона Евросеть", "address": "ул. Латвийская, д. 18", "place": "point" }, "geometry": { "type": "Point", "coordinates": [ 60.777275290419261, 56.789105461968532 ] } },
{ "type": "Feature", "properties": { "evid": 20, "ex_type": "TERCO", "exident": "территориальный конфликт", "date": "2017\/09\/18", "time": null, "link": "http:\/\/www.justmedia.ru\/news\/society\/skandalnyj_sverdlovskij_ataman_ugrozhal_ekaterinburzhenke_video_foto", "link2": null, "descrip": "конфликт жителей во дворе", "address": "ул. Радищева, д. 63", "place": "point" }, "geometry": { "type": "Point", "coordinates": [ 60.577240808345607, 56.826227748186959 ] } },
{ "type": "Feature", "properties": { "evid": 21, "ex_type": "RAZBJ", "exident": "разбой, грабеж", "date": "2017\/09\/29", "time": "день", "link": "http:\/\/www.e1.ru\/news\/spool\/news_id-478205.html", "link2": null, "descrip": "напали с ножом на оператора, отобрали карту памяти", "address": "пер. Теплоходный", "place": "point" }, "geometry": { "type": "Point", "coordinates": [ 60.539568955921915, 56.862475500466033 ] } },
{ "type": "Feature", "properties": { "evid": 23, "ex_type": "ANOML", "exident": "аномалия", "date": "2017\/10\/18", "time": "ночь", "link": "http:\/\/www.e1.ru\/news\/spool\/news_id-479493.html", "link2": null, "descrip": "Неадекватная женщина на крыше перебудила соседей.", "address": "ул. Ильича, д. 6", "place": "point" }, "geometry": { "type": "Point", "coordinates": [ 60.595798721043394, 56.887239066816484 ] } },
{ "type": "Feature", "properties": { "evid": 24, "ex_type": "PRCHE", "exident": "пропал человек", "date": "2017\/10\/15", "time": null, "link": "http:\/\/www.e1.ru\/news\/spool\/news_id-479312.html", "link2": null, "descrip": "Бабушка с потерей памяти", "address": "ул. Малышева, д. 152Б", "place": "point" }, "geometry": { "type": "Point", "coordinates": [ 60.662664108097914, 56.840129284853369 ] } },
{ "type": "Feature", "properties": { "evid": 25, "ex_type": "PRCHE", "exident": "пропал человек", "date": "2017\/09\/19", "time": "21:00:00", "link": "http:\/\/www.e1.ru\/news\/spool\/news_id-477457.html", "link2": null, "descrip": "пропал пенсионер", "address": "ул. Черепанова, д. 16", "place": "area" }, "geometry": { "type": "Point", "coordinates": [ 60.56392853245994, 56.855637625782876 ] } },
{ "type": "Feature", "properties": { "evid": 26, "ex_type": "UGONM", "exident": "угон машины", "date": "2017\/03\/01", "time": "02:30:00", "link": "http:\/\/www.e1.ru\/news\/spool\/news_id-462955.html", "link2": null, "descrip": "угон автомобиля с помощью \"удочки\"", "address": "ул. Фурманова, д. 125", "place": "point" }, "geometry": { "type": "Point", "coordinates": [ 60.583863398948289, 56.812014196464233 ] } },
{ "type": "Feature", "properties": { "evid": 6, "ex_type": "VANDL", "exident": "вандализм", "date": "2017\/09\/02", "time": "ночь", "link": "http:\/\/www.e1.ru\/news\/spool\/news_id-476327.html", "link2": "https:\/\/vk.com\/incekb?w=wall-14297077_408924", "descrip": "Проткнули колеса множеству автомобилей.", "address": "ул. Онежская, 8а", "place": "area" }, "geometry": { "type": "Point", "coordinates": [ 60.638469927575372, 56.799637610391265 ] } },
{ "type": "Feature", "properties": { "evid": 27, "ex_type": "PRCHE", "exident": "пропал человек", "date": "2017\/09\/27", "time": "ночь", "link": "http:\/\/www.e1.ru\/news\/spool\/news_id-477663.html", "link2": null, "descrip": "из больницы ушел пенсионер с аритмией", "address": "ул. Заводская, д. 29", "place": "point" }, "geometry": { "type": "Point", "coordinates": [ 60.554245960490697, 56.83212778051459 ] } },
{ "type": "Feature", "properties": { "evid": 28, "ex_type": "PADOK", "exident": "падение из окна", "date": "2017\/10\/14", "time": "07:00:00", "link": "http:\/\/www.e1.ru\/news\/spool\/news_id-479239.html", "link2": null, "descrip": "Мужчина выпал из окна.", "address": "ул. Белинского, д. 156", "place": "point" }, "geometry": { "type": "Point", "coordinates": [ 60.622172036295353, 56.810497786974096 ] } },
{ "type": "Feature", "properties": { "evid": 29, "ex_type": "PADOK", "exident": "падение из окна", "date": "2017\/10\/02", "time": null, "link": "http:\/\/www.e1.ru\/news\/spool\/news_id-478361.html", "link2": null, "descrip": "школьница выпала с 3 этажа", "address": "ул. Данилы Зверева, д. 30\/1", "place": "point" }, "geometry": { "type": "Point", "coordinates": [ 60.653352325790998, 56.868705544483362 ] } },
{ "type": "Feature", "properties": { "evid": 30, "ex_type": "TERCO", "exident": "территориальный конфликт", "date": "2017\/11\/14", "time": null, "link": "https:\/\/vk.com\/incekb?w=wall-14297077_476841", "link2": null, "descrip": "Жилец расстрелял камеру в подъезде, установленную другим жильцом", "address": "ул. Куйбышева, д. 102А", "place": "point" }, "geometry": { "type": "Point", "coordinates": [ 60.649121350333914, 56.827205094938023 ] } },
{ "type": "Feature", "properties": { "evid": 31, "ex_type": "BSPRD", "exident": "беспорядки", "date": "2017\/11\/14", "time": "10:00:00", "link": "https:\/\/vk.com\/incekb?w=wall-14297077_476731", "link2": null, "descrip": "Житель дома напал на представителей УК, стрелял в воздух из травматики", "address": "пр. Орджоникидзе, д. 22", "place": "point" }, "geometry": { "type": "Point", "coordinates": [ 60.589568856025764, 56.897452856345318 ] } },
{ "type": "Feature", "properties": { "evid": 32, "ex_type": "OGRAB", "exident": "ограбление организации", "date": "2017\/11\/14", "time": "вечер", "link": "https:\/\/vk.com\/incekb?w=wall-14297077_476643", "link2": null, "descrip": "Ограбили на 15 т.руб. микрокредитный ларек", "address": "ул. Бардина, д. 12", "place": "point" }, "geometry": { "type": "Point", "coordinates": [ 60.55647604979697, 56.806437957539629 ] } },
{ "type": "Feature", "properties": { "evid": 33, "ex_type": "IZNAS", "exident": "изнасилование", "date": "2017\/11\/07", "time": "17:30:00", "link": "https:\/\/vk.com\/incekb?w=wall-14297077_473609", "link2": null, "descrip": "Похищена и изнаcилована девочка 12 лет", "address": "мкрн. Шинный", "place": "area" }, "geometry": { "type": "Point", "coordinates": [ 60.644275461922618, 56.784743665634593 ] } },
{ "type": "Feature", "properties": { "evid": 34, "ex_type": "VANDL", "exident": "вандализм", "date": "2017\/11\/07", "time": "ночь", "link": "https:\/\/vk.com\/incekb?w=wall-14297077_469174", "link2": null, "descrip": "раскрасили из балона машины", "address": "ул. Рощинская, д. 45", "place": "point" }, "geometry": { "type": "Point", "coordinates": [ 60.672643393733203, 56.779354867625969 ] } },
{ "type": "Feature", "properties": { "evid": 35, "ex_type": "PRCHE", "exident": "пропал человек", "date": "2017\/11\/03", "time": "23:00:00", "link": "https:\/\/vk.com\/incekb?w=wall-14297077_465789", "link2": null, "descrip": "пропал человек", "address": "ул. Первомайская, д. 85", "place": "area" }, "geometry": { "type": "Point", "coordinates": [ 60.649287371905601, 56.846120327372567 ] } },
{ "type": "Feature", "properties": { "evid": 36, "ex_type": "BSPRD", "exident": "беспорядки", "date": "2017\/10\/24", "time": null, "link": "http:\/\/www.e1.ru\/news\/spool\/news_id-479987.html", "link2": null, "descrip": "Вымогали за вывоз мусора", "address": "ул. Восточная, д. 7Д\/1", "place": "area" }, "geometry": { "type": "Point", "coordinates": [ 60.632337960585552, 56.842476604583531 ] } },
{ "type": "Feature", "properties": { "evid": 40, "ex_type": "ANOML", "exident": "аномалия", "date": "2017\/12\/26", "time": null, "link": "http:\/\/www.ural.aif.ru\/incidents\/zhitel_ekaterinburga_vybrasyvaya_na_ulicu_tehniku_popal_na_video", "link2": null, "descrip": "Неадекватный мужчина выбрасывал вещи из квартиры на улицу. Повреждены машины.", "address": "ул. Рощинская, д. 27", "place": "point" }, "geometry": { "type": "Point", "coordinates": [ 60.66852459729197, 56.781137686383289 ] } },
{ "type": "Feature", "properties": { "evid": 42, "ex_type": "ANOML", "exident": "аномалия", "date": "2017\/11\/22", "time": "день", "link": "http:\/\/www.e1.ru\/news\/spool\/news_id-482262.html", "link2": null, "descrip": "Маг бросался на прохожих.", "address": "пр. Ленина, д. 5", "place": "area" }, "geometry": { "type": "Point", "coordinates": [ 60.583090461537111, 56.836456398747373 ] } },
{ "type": "Feature", "properties": { "evid": 43, "ex_type": "VANDL", "exident": "вандализм", "date": "2017\/10\/17", "time": "ночь", "link": "http:\/\/www.e1.ru\/news\/spool\/news_id-479438.html", "link2": null, "descrip": "Кто-то разбирает и уносит литые секции ограды парка.", "address": "ул. Бабушкина, д. 2", "place": "area" }, "geometry": { "type": "Point", "coordinates": [ 60.628443604916498, 56.883208427880163 ] } },
{ "type": "Feature", "properties": { "evid": 44, "ex_type": "PRCHE", "exident": "пропал человек", "date": "2017\/10\/21", "time": "12:00:00", "link": "http:\/\/www.e1.ru\/news\/spool\/news_id-479754.html", "link2": null, "descrip": "Девочка не пришла из школы домой.", "address": "ул. Волгоградская, д. 37Б", "place": "area" }, "geometry": { "type": "Point", "coordinates": [ 60.577285764597789, 56.801958524355555 ] } },
{ "type": "Feature", "properties": { "evid": 45, "ex_type": "OGRAB", "exident": "ограбление организации", "date": "2018\/01\/12", "time": "поздний вечер", "link": "http:\/\/www.e1.ru\/news\/spool\/news_id-485388.html", "link2": null, "descrip": "ограбили магазин Связной", "address": "ул. Латвийская, д. 18", "place": "point" }, "geometry": { "type": "Point", "coordinates": [ 60.777245339862901, 56.789162917826751 ] } },
{ "type": "Feature", "properties": { "evid": 46, "ex_type": "VANDL", "exident": "вандализм", "date": "2017\/12\/22", "time": null, "link": "http:\/\/www.e1.ru\/news\/spool\/news_id-484340.html", "link2": null, "descrip": "Сломали \"берлинских мишек\"", "address": "ул. Вайнера, д. 15А", "place": "point" }, "geometry": { "type": "Point", "coordinates": [ 60.596706789644223, 56.831793012913288 ] } },
{ "type": "Feature", "properties": { "evid": 47, "ex_type": "PRCHE", "exident": "пропал человек", "date": "2017\/11\/11", "time": "08:30:00", "link": "http:\/\/www.e1.ru\/news\/spool\/news_id-481326.html", "link2": null, "descrip": "мужчина ушел из дома и не вернулся", "address": "ул. Расковой, д. 27", "place": "area" }, "geometry": { "type": "Point", "coordinates": [ 60.588698673156337, 56.80167134572001 ] } },
{ "type": "Feature", "properties": { "evid": 48, "ex_type": "PRCHE", "exident": "пропал человек", "date": "2018\/01\/21", "time": null, "link": "http:\/\/www.e1.ru\/news\/spool\/news_id-53409441.html", "link2": null, "descrip": "Пропала девочка. Но потом нашлась", "address": "п. Горный Щит, ул. Зелёная, д. 2Д", "place": "area" }, "geometry": { "type": "Point", "coordinates": [ 60.531700605955848, 56.689061285010602 ] } },
{ "type": "Feature", "properties": { "evid": 49, "ex_type": "ANOML", "exident": "аномалия", "date": "2018\/01\/26", "time": null, "link": "http:\/\/www.e1.ru\/news\/spool\/news_id-53437491.html", "link2": null, "descrip": "Дезориентированная бабушка. Потом нашлись родственники.", "address": "ул. 8 Марта, д. 145", "place": "point" }, "geometry": { "type": "Point", "coordinates": [ 60.611161331570578, 56.807874701188595 ] } },
{ "type": "Feature", "properties": { "evid": 50, "ex_type": "ANOML", "exident": "аномалия", "date": "2018\/01\/20", "time": "21:00:00", "link": "http:\/\/www.e1.ru\/news\/spool\/news_id-53406281.html", "link2": null, "descrip": "Мальчик отравился газом из зажигалки", "address": "ул. Щербакова, д. 4", "place": "point" }, "geometry": { "type": "Point", "coordinates": [ 60.5998370728746, 56.828392711958877 ] } },
{ "type": "Feature", "properties": { "evid": 51, "ex_type": "ANOML", "exident": "аномалия", "date": "2017\/11\/14", "time": "день", "link": "http:\/\/www.e1.ru\/news\/spool\/news_id-481522.html", "link2": null, "descrip": "Рыбак вышел на тонкий лед. Спасли проезжающие мимо.", "address": "Кольцовский тракт 10 км, д. 15", "place": "area" }, "geometry": { "type": "Point", "coordinates": [ 60.712928937668948, 56.778020769870864 ] } },
{ "type": "Feature", "properties": { "evid": 52, "ex_type": "TERCO", "exident": "территориальный конфликт", "date": "2017\/11\/21", "time": null, "link": "http:\/\/www.e1.ru\/news\/spool\/news_id-482093.html", "link2": null, "descrip": "Ремонтники перекопали единственный проезд к дому и исчезли.", "address": "ул. Водонасосная, д. 16", "place": "point" }, "geometry": { "type": "Point", "coordinates": [ 60.4957232250676, 56.846212426625428 ] } },
{ "type": "Feature", "properties": { "evid": 53, "ex_type": "TRAVM", "exident": "травма", "date": "2017\/10\/10", "time": null, "link": "http:\/\/www.e1.ru\/news\/spool\/news_id-479105.html", "link2": null, "descrip": "Водитель маршрутки зажал в дверях женщину с ребенком", "address": "ост. Спортивная", "place": "point" }, "geometry": { "type": "Point", "coordinates": [ 60.641456486821937, 56.894193298422671 ] } },
{ "type": "Feature", "properties": { "evid": 54, "ex_type": "ANOML", "exident": "аномалия", "date": "2017\/10\/15", "time": "ночь", "link": "http:\/\/www.e1.ru\/news\/spool\/news_id-479304.html", "link2": null, "descrip": "Пожилой мужчина дезориентирован. Пропал из дома.", "address": "ул. Красных командиров", "place": "area" }, "geometry": { "type": "Point", "coordinates": [ 60.627519710591834, 56.896887889958293 ] } },
{ "type": "Feature", "properties": { "evid": 37, "ex_type": "ZHIVO", "exident": "живодеры", "date": "2017\/10\/09", "time": "19:00:00", "link": "http:\/\/www.e1.ru\/news\/spool\/news_id-478867.html", "link2": null, "descrip": "Мужчина выкинул с балкона щенка алабая.", "address": "ул. Новая, д. 5", "place": "point" }, "geometry": { "type": "Point", "coordinates": [ 60.778856564801238, 56.787981455516075 ] } },
{ "type": "Feature", "properties": { "evid": 39, "ex_type": "ZHIVO", "exident": "живодеры", "date": "2017\/10\/28", "time": null, "link": "http:\/\/www.ural.aif.ru\/incidents\/v_centre_ekaterinburga_ritualno_ubili_domashnego_spanielya", "link2": null, "descrip": "Перерезали горло спаниелю.", "address": "пр. Ленина, д. 1", "place": "area" }, "geometry": { "type": "Point", "coordinates": [ 60.579991373192065, 56.838304609940515 ] } },
{ "type": "Feature", "properties": { "evid": 41, "ex_type": "ZHIVO", "exident": "живодеры", "date": "2018\/01\/06", "time": null, "link": "http:\/\/www.ural.aif.ru\/incidents\/na_shirokoy_rechke_posle_novogo_goda_ocherednoy_sluchay_zhivoderstva", "link2": null, "descrip": "Убили собаку.", "address": "ул. Хрустальная, д. 84", "place": "point" }, "geometry": { "type": "Point", "coordinates": [ 60.489059850199908, 56.800151315993773 ] } },
{ "type": "Feature", "properties": { "evid": 55, "ex_type": "UGONM", "exident": "угон машины", "date": "2017\/11\/08", "time": "ночь", "link": "http:\/\/www.e1.ru\/news\/spool\/news_id-481007.html", "link2": null, "descrip": "Попытались угнасть ВАЗ 2106, но тупо сожгли.", "address": "ул. Колхозников, д. 87", "place": "area" }, "geometry": { "type": "Point", "coordinates": [ 60.618360827005844, 56.753533827033401 ] } },
{ "type": "Feature", "properties": { "evid": 56, "ex_type": "UGONM", "exident": "угон машины", "date": "2017\/12\/10", "time": "ночь", "link": "http:\/\/www.e1.ru\/news\/spool\/news_id-483460.html", "link2": null, "descrip": "Рецидивист угнал машину с Технической", "address": "ул. Техническая", "place": "area" }, "geometry": { "type": "Point", "coordinates": [ 60.518472223903125, 56.873876079782868 ] } },
{ "type": "Feature", "properties": { "evid": 57, "ex_type": "PADOK", "exident": "падение из окна", "date": "2017\/12\/19", "time": "22:30:00", "link": "http:\/\/www.e1.ru\/news\/spool\/news_id-484040.html", "link2": null, "descrip": "Человек выпал из окна на машину.", "address": "пер. Базовый, д. 50", "place": "point" }, "geometry": { "type": "Point", "coordinates": [ 60.64823485878496, 56.805810622216924 ] } },
{ "type": "Feature", "properties": { "evid": 58, "ex_type": "VANDL", "exident": "вандализм", "date": "2017\/12\/19", "time": null, "link": "http:\/\/www.e1.ru\/news\/spool\/news_id-484044.html", "link2": null, "descrip": "Два мужика прокололи колеса на 5 машинах у дома.", "address": "г. Березовский, ул. Театральная, д. 36", "place": "point" }, "geometry": { "type": "Point", "coordinates": [ 60.830152009279395, 56.910571829723011 ] } },
{ "type": "Feature", "properties": { "evid": 60, "ex_type": "PRCHE", "exident": "пропал человек", "date": "2017\/11\/07", "time": "16:00:00", "link": "http:\/\/www.e1.ru\/news\/spool\/news_id-480932.html", "link2": null, "descrip": "Мальчик 10 лет пошел с другом гулять и не вернулся домой.", "address": "ул. Блюхера, д. 14", "place": "area" }, "geometry": { "type": "Point", "coordinates": [ 60.644080062108493, 56.85184726188826 ] } },
{ "type": "Feature", "properties": { "evid": 62, "ex_type": "NELEG", "exident": "нелегалы \/ задержания", "date": "2018\/01\/11", "time": "ночь", "link": "http:\/\/www.e1.ru\/news\/spool\/news_id-485257.html", "link2": null, "descrip": "Мигранты незаконно подключили дом к электросети. Что-то замкнуло. Дом сгорел.", "address": "ул. Памирская, д. 22", "place": "point" }, "geometry": { "type": "Point", "coordinates": [ 60.665080683825174, 56.866393561648408 ] } },
{ "type": "Feature", "properties": { "evid": 63, "ex_type": "ANOML", "exident": "аномалия", "date": "2018\/01\/29", "time": null, "link": "http:\/\/www.e1.ru\/news\/spool\/news_id-485926.html", "link2": null, "descrip": "Бабушка продает сказки у входа в торговый центр.", "address": "ул. Санаторная, д. 1", "place": "point" }, "geometry": { "type": "Point", "coordinates": [ 60.613192066339522, 56.768746002456304 ] } },
{ "type": "Feature", "properties": { "evid": 64, "ex_type": "ANOML", "exident": "аномалия", "date": "2017\/11\/09", "time": null, "link": "http:\/\/www.e1.ru\/news\/spool\/news_id-481166.html", "link2": null, "descrip": "Мусорная квартира. Хозяйку выселили. Коммунальщики разбирают мусор.", "address": "ул. Космонавтов, д. 80\/6", "place": "point" }, "geometry": { "type": "Point", "coordinates": [ 60.616246702225595, 56.905428545848302 ] } },
{ "type": "Feature", "properties": { "evid": 65, "ex_type": "VANDL", "exident": "вандализм", "date": "2017\/11\/07", "time": null, "link": "http:\/\/www.e1.ru\/news\/spool\/news_id-480962.html", "link2": null, "descrip": "Активист \"Другой России\" пытался поджечь памятник Ельцину.", "address": "ул. Бориса Ельцина, д. 3а", "place": "point" }, "geometry": { "type": "Point", "coordinates": [ 60.591764611462544, 56.844193508017867 ] } },
{ "type": "Feature", "properties": { "evid": 66, "ex_type": "ANOML", "exident": "аномалия", "date": "2017\/10\/06", "time": null, "link": "http:\/\/www.e1.ru\/news\/spool\/news_id-478668.html", "link2": null, "descrip": "Мужчине стало плохо и он упал на рельсы в метро. Все живы.", "address": "ст. метро Чкаловская", "place": "point" }, "geometry": { "type": "Point", "coordinates": [ 60.609923790457117, 56.808529709575488 ] } },
{ "type": "Feature", "properties": { "evid": 67, "ex_type": "PRCHE", "exident": "пропал человек", "date": "2017\/12\/08", "time": "день", "link": "http:\/\/www.e1.ru\/news\/spool\/news_id-483394.html", "link2": null, "descrip": "Женщина ушла из дома и не вернулась.", "address": "ул. Готвальда, д. 11", "place": "point" }, "geometry": { "type": "Point", "coordinates": [ 60.566115995492218, 56.849758469501786 ] } },
{ "type": "Feature", "properties": { "evid": 68, "ex_type": "VANDL", "exident": "вандализм", "date": "2017\/12\/01", "time": "ночь", "link": "http:\/\/www.e1.ru\/news\/spool\/news_id-482967.html", "link2": null, "descrip": "Неизвестные разломали бэби-бокс.", "address": "пр. Ленина, д. 11А", "place": "point" }, "geometry": { "type": "Point", "coordinates": [ 60.587246549691258, 56.836914301723382 ] } },
{ "type": "Feature", "properties": { "evid": 70, "ex_type": "RAZBJ", "exident": "разбой, грабеж", "date": "2018\/01\/31", "time": "21:30", "link": "http:\/\/vedomosti-ural.ru\/news\/63618\/", "link2": null, "descrip": "Трое мигрантов выследили в магазине, жестоко избили и ограбили пожилую женщину.", "address": "ул. Бакинских комиссаров, д. 64", "place": "point" }, "geometry": { "type": "Point", "coordinates": [ 60.590375714360626, 56.906735365071576 ] } },
{ "type": "Feature", "properties": { "evid": 71, "ex_type": "NELEG", "exident": "нелегалы \/ задержания", "date": "2017\/09\/29", "time": "ранее утро", "link": "http:\/\/vedomosti-ural.ru\/news\/60980\/", "link2": null, "descrip": "Полицейские и ОМОН ищут нелегальных мигрантов", "address": "ул. Высоцкого, д. 45г", "place": "area" }, "geometry": { "type": "Point", "coordinates": [ 60.693349040844339, 56.844107830460203 ] } },
{ "type": "Feature", "properties": { "evid": 72, "ex_type": "VANDL", "exident": "вандализм", "date": "2017\/11\/07", "time": null, "link": "http:\/\/vedomosti-ural.ru\/news\/62130\/", "link2": null, "descrip": "Сторонники Эдуарда Лимонова разбили памятную доску Колчака.", "address": "ул. Февральской революции, д. 9", "place": "point" }, "geometry": { "type": "Point", "coordinates": [ 60.593108064669721, 56.841193377629466 ] } },
{ "type": "Feature", "properties": { "evid": 73, "ex_type": "ANOML", "exident": "аномалия", "date": "2015\/02\/06", "time": "круглосуточно", "link": "http:\/\/www.e1.ru\/news\/spool\/news_id-418830.html", "link2": null, "descrip": "Полицейские закрыли бодель.", "address": "ул. Красноармейская, д. 66", "place": "point" }, "geometry": { "type": "Point", "coordinates": [ 60.617716223781549, 56.831586478818906 ] } },
{ "type": "Feature", "properties": { "evid": 74, "ex_type": "VANDL", "exident": "вандализм", "date": "2018\/02\/07", "time": "неизвестно", "link": "http:\/\/www.e1.ru\/news\/spool\/news_id-486003.html", "link2": null, "descrip": "Вандалы сорвали знаки парковки для инвалидов вокруг нескольких домов на перекрестке", "address": "ул. Семихатова, д. 14\/3, 14\/4, ул. Михеева, д. 8", "place": "area" }, "geometry": { "type": "Point", "coordinates": [ 60.550413673896223, 56.780980925782757 ] } },
{ "type": "Feature", "properties": { "evid": 76, "ex_type": "NARCO", "exident": "наркотики", "date": "2018\/02\/08", "time": "день", "link": "http:\/\/www.e1.ru\/news\/spool\/news_id-53500421.html", "link2": null, "descrip": "Задержали жителя ХМАО, перевозившего в лендкрузере крупную партию наркотиков.", "address": "ул. Проезжая, д. 112", "place": "point" }, "geometry": { "type": "Point", "coordinates": [ 60.691209077687475, 56.876096078914401 ] } },
{ "type": "Feature", "properties": { "evid": 77, "ex_type": "ANOML", "exident": "аномалия", "date": "2018\/02\/09", "time": "11:20", "link": "http:\/\/www.ural.aif.ru\/society\/v_sadike_na_uralmashe_devochka_poteryalas_vo_vremya_progulki", "link2": null, "descrip": "Девочка пяти лет ушла с территории детсада из прод надзора воспитателей.", "address": "ул. Уральских рабочих, д. 41а", "place": "point" }, "geometry": { "type": "Point", "coordinates": [ 60.59682961649164, 56.895597276430351 ] } },
{ "type": "Feature", "properties": { "evid": 78, "ex_type": "TERCO", "exident": "территориальный конфликт", "date": "2018\/02\/12", "time": "неизвестно", "link": "http:\/\/www.e1.ru\/news\/spool\/news_id-53517651.html", "link2": null, "descrip": "соседи не поладили по поводу мебели в общем коридоре на этаже МКД", "address": "пер. Красный, д. 5", "place": "area" }, "geometry": { "type": "Point", "coordinates": [ 60.597107386543847, 56.850301839244814 ] } },
{ "type": "Feature", "properties": { "evid": 79, "ex_type": "ANOML", "exident": "аномалия", "date": "2018\/02\/11", "time": "день", "link": "http:\/\/www.e1.ru\/news\/spool\/news_id-53512991.html", "link2": null, "descrip": "Лиса охотно кушала шашлык у людей в Калиновском лесопарке", "address": null, "place": "area" }, "geometry": { "type": "Point", "coordinates": [ 60.652020825225065, 56.895844963201661 ] } },
{ "type": "Feature", "properties": { "evid": 80, "ex_type": "ANOML", "exident": "аномалия", "date": "2018\/02\/10", "time": "вечер", "link": "http:\/\/www.e1.ru\/news\/spool\/news_id-486041.html", "link2": null, "descrip": "Пьяная женщина с маленьким ребенком на улице", "address": "ул. Старых Большевиков, д. 82\/4", "place": "point" }, "geometry": { "type": "Point", "coordinates": [ 60.618416317688983, 56.90108315375349 ] } },
{ "type": "Feature", "properties": { "evid": 61, "ex_type": "UGONM", "exident": "угон машины", "date": "2017\/12\/08", "time": "поздний вечер", "link": "http:\/\/www.e1.ru\/news\/spool\/news_id-483861.html", "link2": "https:\/\/vk.com\/incekb?w=wall-14297077_507846\n", "descrip": "Хозяин оставил ключи в заведенной БМВ. Случайный парень угнал.", "address": "ул. Союзная, д. 27", "place": "point" }, "geometry": { "type": "Point", "coordinates": [ 60.609012038284931, 56.803641487281567 ] } },
{ "type": "Feature", "properties": { "evid": 59, "ex_type": "ANOML", "exident": "аномалия", "date": "2018\/01\/25", "time": "поздний вечер", "link": "http:\/\/www.e1.ru\/news\/spool\/news_id-485860.html", "link2": null, "descrip": "Взрыв и пожар в результате неосторожного курения у газового баллона в подъезде.", "address": "ул. Пионеров, д. 3", "place": "point" }, "geometry": { "type": "Point", "coordinates": [ 60.623735857368558, 56.856421304694571 ] } },
{ "type": "Feature", "properties": { "evid": 81, "ex_type": "PRCHE", "exident": "пропал человек", "date": "2018\/02\/19", "time": "пятница день", "link": "http:\/\/www.e1.ru\/news\/spool\/news_id-53553391.html", "link2": "https:\/\/vk.com\/incekb?w=wall-14297077_565652", "descrip": "Мать двоих детей перестала выходить на связь. Через несколько дней нашлась.", "address": "ул. Машиностроителей, д. 26", "place": "area" }, "geometry": { "type": "Point", "coordinates": [ 60.566257904423182, 56.884559615908422 ] } },
{ "type": "Feature", "properties": { "evid": 82, "ex_type": "PRCHE", "exident": "пропал человек", "date": "2018\/02\/13", "time": "около восьми утра", "link": "http:\/\/www.e1.ru\/news\/spool\/news_id-53546921.html", "link2": "http:\/\/www.e1.ru\/news\/spool\/news_id-53561071.html", "descrip": "Молодой человек пошел на работу и пропал. Нашелся через неделю живым.", "address": "ул. Шаманова, д. 21", "place": "area" }, "geometry": { "type": "Point", "coordinates": [ 60.515431653652499, 56.788565557655225 ] } },
{ "type": "Feature", "properties": { "evid": 83, "ex_type": "PADOK", "exident": "падение из окна", "date": "2018\/02\/17", "time": "день", "link": "http:\/\/www.e1.ru\/news\/spool\/news_id-53546351.html", "link2": null, "descrip": "Мужчина выпал из окна подъезда на 6-м этаже", "address": "пр. Седова, д. 42", "place": "point" }, "geometry": { "type": "Point", "coordinates": [ 60.536179375916724, 56.868439302310961 ] } },
{ "type": "Feature", "properties": { "evid": 84, "ex_type": "ANOML", "exident": "аномалия", "date": "2018\/02\/20", "time": "20:00", "link": "http:\/\/www.e1.ru\/news\/spool\/news_id-53560901.html", "link2": "http:\/\/www.e1.ru\/news\/spool\/news_id-53561081.html", "descrip": "Прорыв трубы ХВС.Залит двор и улица. 4 9-этажных дома дома без воды.", "address": "ул. Ильича, д. 35", "place": "point" }, "geometry": { "type": "Point", "coordinates": [ 60.599935033802204, 56.892623899901672 ] } },
{ "type": "Feature", "properties": { "evid": 86, "ex_type": "ANOML", "exident": "аномалия", "date": "2018\/02\/10", "time": "ночь", "link": "http:\/\/www.e1.ru\/news\/spool\/news_id-486035.html", "link2": null, "descrip": "Подростки спрятались в торговом зале и пировали ночью.", "address": "ул. Космонавтов, д. 104", "place": "point" }, "geometry": { "type": "Point", "coordinates": [ 60.612393429667932, 56.913525369036165 ] } },
{ "type": "Feature", "properties": { "evid": 87, "ex_type": "ANOML", "exident": "аномалия", "date": "2018\/02\/10", "time": "вечер", "link": "http:\/\/www.e1.ru\/news\/spool\/news_id-53510011.html", "link2": null, "descrip": "Рысь бродила по улицам и дворам города.", "address": "ул. Шиловская, ул. Театральная", "place": "area" }, "geometry": { "type": "Point", "coordinates": [ 60.817305971299369, 56.907604473786691 ] } },
{ "type": "Feature", "properties": { "evid": 88, "ex_type": "UGONM", "exident": "угон машины", "date": "2018\/02\/08", "time": "15:40", "link": "https:\/\/www.e1.ru\/news\/spool\/news_id-53501941.html", "link2": "http:\/\/www.e1.ru\/news\/spool\/news_id-53508231.html", "descrip": "Мужчина угнал ВАЗ на глазах у хозяйки, повредил другую машину. Машина найдена неподалеку на ул. Тверитина.", "address": "ул. Восточная, д. 35", "place": "point" }, "geometry": { "type": "Point", "coordinates": [ 60.640518270014567, 56.821618188074694 ] } },
{ "type": "Feature", "properties": { "evid": 89, "ex_type": "ANOML", "exident": "аномалия", "date": "2018\/02\/08", "time": "вечер", "link": "http:\/\/www.e1.ru\/news\/spool\/news_id-53502991.html", "link2": null, "descrip": "Взрыв на недостроенной телебашне. Осколки упали на прохожих и автомобили.", "address": null, "place": "point" }, "geometry": { "type": "Point", "coordinates": [ 60.608678274182665, 56.8244307971772 ] } },
{ "type": "Feature", "properties": { "evid": 90, "ex_type": "RAZBJ", "exident": "разбой, грабеж", "date": "2018\/02\/21", "time": "7:30", "link": "http:\/\/vedomosti-ural.ru\/news\/64062\/", "link2": "https:\/\/vk.com\/incekb?w=wall-14297077_567273", "descrip": "Двое напали, избили и ограбили молодого человека. Он оказался помощником депутата Зяблицева.", "address": "ул. Уральская, д. 65", "place": "point" }, "geometry": { "type": "Point", "coordinates": [ 60.635054759127534, 56.856062098327399 ] } },
{ "type": "Feature", "properties": { "evid": 92, "ex_type": "ANOML", "exident": "аномалия", "date": "2018\/03\/09", "time": "день", "link": "http:\/\/www.ural.aif.ru\/society\/vesna_blizko_v_ekaterinburge_zaderzhali_buynogo_psiha", "link2": null, "descrip": "Психически нездоровый мужчина выбрасывал вещи из квартиры на улицу", "address": "ул. Бебеля, д. 128", "place": "point" }, "geometry": { "type": "Point", "coordinates": [ 60.555785763080507, 56.852955214601479 ] } },
{ "type": "Feature", "properties": { "evid": 93, "ex_type": "RAZBJ", "exident": "разбой, грабеж", "date": "2018\/02\/15", "time": null, "link": "http:\/\/www.ural.aif.ru\/society\/zhitelnica_aramilya_vyprygnula_iz_okna_spasayas_ot_grabiteley", "link2": null, "descrip": "Грабители с ножами ворвались в квартиру. Женщина выпрыгнула со второго этажа. Росгвардия и полиция всех приняли.", "address": "г. Арамиль, ул. Новая", "place": "area" }, "geometry": { "type": "Point", "coordinates": [ 60.844844915761044, 56.681948331080214 ] } },
{ "type": "Feature", "properties": { "evid": 94, "ex_type": "NAPSH", "exident": "наезд на пешехода", "date": "2018\/03\/22", "time": "20:15", "link": "https:\/\/www.e1.ru\/news\/spool\/news_id-54209191.html", "link2": null, "descrip": "Пешеход перелез через ограждение и попытался пересечь объездную в темное время суток. Сбили насмерть.", "address": "ЕКАД, 9 км.", "place": "area" }, "geometry": { "type": "Point", "coordinates": [ 60.791780434426471, 56.798506996328676 ] } },
{ "type": "Feature", "properties": { "evid": 95, "ex_type": "BSPRD", "exident": "беспорядки", "date": "2018\/02\/22", "time": "ночь", "link": "https:\/\/www.e1.ru\/news\/spool\/news_id-53569181.html", "link2": null, "descrip": "ДПС штрафовала водителя за тонировку, но прибежала куча родственников. ДПС вызвали поддержку.", "address": "ул. Шекспира", "place": "area" }, "geometry": { "type": "Point", "coordinates": [ 60.534827950644335, 56.822786386906216 ] } },
{ "type": "Feature", "properties": { "evid": 96, "ex_type": "PADOK", "exident": "падение из окна", "date": "2018\/02\/23", "time": "утро", "link": "https:\/\/www.e1.ru\/news\/spool\/news_id-53573601.html", "link2": null, "descrip": "Молодой мужчина в летней одежде выпал с балкона общей лестницы и разбился насмерть. Данных за криминал нету.", "address": "ул. Родонитовая, д. 36", "place": "point" }, "geometry": { "type": "Point", "coordinates": [ 60.628348937295051, 56.792173442688892 ] } },
{ "type": "Feature", "properties": { "evid": 97, "ex_type": "BSPRD", "exident": "беспорядки", "date": "2018\/02\/25", "time": "13:00", "link": "https:\/\/www.e1.ru\/news\/spool\/news_id-53577661.html", "link2": null, "descrip": "Горожане пришли на тренировку с Костей Дзю и Майком Тайсоном, но не попали в переполненный ДИВС. Бузили, ломали двери.", "address": "наб. Олимпийска, д. 3", "place": "point" }, "geometry": { "type": "Point", "coordinates": [ 60.596955342057505, 56.846920268448415 ] } },
{ "type": "Feature", "properties": { "evid": 98, "ex_type": "NARCO", "exident": "наркотики", "date": "2018\/02\/23", "time": "ночь", "link": "https:\/\/www.e1.ru\/news\/spool\/news_id-53581041.html", "link2": null, "descrip": "ГИБДД остановила водителя для проверки, а он наутек. Догнали, а он лыка не вяжет. Нашли порошок.", "address": "ул. Комсомольская, д. 9", "place": "area" }, "geometry": { "type": "Point", "coordinates": [ 60.654769744509807, 56.854963023788905 ] } },
{ "type": "Feature", "properties": { "evid": 99, "ex_type": "NELEG", "exident": "нелегалы \/ задержания", "date": "2018\/02\/25", "time": null, "link": "https:\/\/www.e1.ru\/news\/spool\/news_id-53582731.html", "link2": null, "descrip": "Полиция задержала находившегося в розыске гражданина Таджикистана", "address": "пл. Бахчиванджи, д. 1", "place": "point" }, "geometry": { "type": "Point", "coordinates": [ 60.802712165441129, 56.750215478719326 ] } },
{ "type": "Feature", "properties": { "evid": 100, "ex_type": "OGRAB", "exident": "ограбление организации", "date": "2018\/03\/04", "time": "18:00", "link": "https:\/\/www.e1.ru\/news\/spool\/news_id-53611691.html", "link2": null, "descrip": "Из салона связи украли несколько айфонов.", "address": "ул. Ленина, д. 40", "place": "point" }, "geometry": { "type": "Point", "coordinates": [ 60.611978591849379, 56.838915736098329 ] } },
{ "type": "Feature", "properties": { "evid": 101, "ex_type": "VANDL", "exident": "вандализм", "date": "2018\/02\/05", "time": null, "link": "https:\/\/www.e1.ru\/news\/spool\/news_id-53480721.html", "link2": "https:\/\/www.e1.ru\/news\/spool\/news_id-53616881.html", "descrip": "Украли медную катушку со спины памятника солдату-связисту.", "address": "ул. Шейнкмана, д. 57", "place": "point" }, "geometry": { "type": "Point", "coordinates": [ 60.58715959912751, 56.831168427650603 ] } },
{ "type": "Feature", "properties": { "evid": 347, "ex_type": "TRUPP", "exident": "труп", "date": "2017\/08\/19", "time": null, "link": "http:\/\/www.justmedia.ru\/news\/events\/v_ekaterinburge_na_beregu_gorodskogo_pruda_u_rezidenczii_gubernatora_nashli_trup", "link2": null, "descrip": "Нашли утопленника возле резиденции губернатора", "address": "ул. Горького, д. 21", "place": "point" }, "geometry": { "type": "Point", "coordinates": [ 60.604831852433868, 56.839532091004386 ] } },
{ "type": "Feature", "properties": { "evid": 102, "ex_type": "ANOML", "exident": "аномалия", "date": "2018\/03\/06", "time": null, "link": "https:\/\/www.e1.ru\/news\/spool\/news_id-53589311.html", "link2": "https:\/\/www.e1.ru\/news\/spool\/news_id-55348841.html", "descrip": "Мать одиночка крутится изо всех сил, но не вывозит коляску. ТСЖ требует погасить долг в 200 тыр.", "address": "ул. Кренкеля, д. 4\/2", "place": "point" }, "geometry": { "type": "Point", "coordinates": [ 60.579851324898058, 56.846005690390527 ] } },
{ "type": "Feature", "properties": { "evid": 103, "ex_type": "TERCO", "exident": "территориальный конфликт", "date": "2018\/03\/02", "time": null, "link": "https:\/\/www.e1.ru\/news\/spool\/news_id-53603041.html", "link2": "https:\/\/www.e1.ru\/news\/spool\/news_id-53615491.html", "descrip": "Жильцы подали в суд на УК и организовали ТСН.", "address": "ул. Рассветная", "place": "area" }, "geometry": { "type": "Point", "coordinates": [ 60.689814596127505, 56.837744156625099 ] } },
{ "type": "Feature", "properties": { "evid": 104, "ex_type": "TERCO", "exident": "территориальный конфликт", "date": "2018\/03\/27", "time": null, "link": "http:\/\/www.ural.aif.ru\/society\/srazu_dva_rayona_ekaterinburga_izbavyat_ot_metallicheskih_garazhey", "link2": null, "descrip": "Власти вскрывают и демонтируют металлические гаражи.", "address": "ул. Волгоградская, д. 190", "place": "area" }, "geometry": { "type": "Point", "coordinates": [ 60.560322489904635, 56.812130057873134 ] } },
{ "type": "Feature", "properties": { "evid": 105, "ex_type": "TERCO", "exident": "территориальный конфликт", "date": "2018\/03\/27", "time": null, "link": "http:\/\/www.ural.aif.ru\/society\/srazu_dva_rayona_ekaterinburga_izbavyat_ot_metallicheskih_garazhey", "link2": null, "descrip": "Власти вскрывают и демонтируют металлические гаражи.", "address": "ул. Крауля, д. 87 к. 1", "place": "area" }, "geometry": { "type": "Point", "coordinates": [ 60.536170378636605, 56.831119168572528 ] } },
{ "type": "Feature", "properties": { "evid": 106, "ex_type": "TERCO", "exident": "территориальный конфликт", "date": "2018\/03\/27", "time": null, "link": "http:\/\/www.ural.aif.ru\/society\/srazu_dva_rayona_ekaterinburga_izbavyat_ot_metallicheskih_garazhey", "link2": null, "descrip": "Власти вскрывают и демонтируют металлические гаражи.", "address": "ул. Шаумяна, д. 90", "place": "area" }, "geometry": { "type": "Point", "coordinates": [ 60.570197306156757, 56.815331302128008 ] } },
{ "type": "Feature", "properties": { "evid": 108, "ex_type": "ANOML", "exident": "аномалия", "date": "2018\/03\/10", "time": "день", "link": "https:\/\/www.e1.ru\/news\/spool\/news_id-53631771.html", "link2": "https:\/\/www.e1.ru\/news\/spool\/news_id-53635281.html", "descrip": "Пьяный водитель разбил машины и припарковался на сугроб.", "address": "ул. Фролова, д. 19\/2", "place": "point" }, "geometry": { "type": "Point", "coordinates": [ 60.549744841143543, 56.838488177018498 ] } },
{ "type": "Feature", "properties": { "evid": 109, "ex_type": "ANOML", "exident": "аномалия", "date": "2018\/03\/17", "time": "день", "link": "https:\/\/www.e1.ru\/news\/spool\/news_id-53662001.html", "link2": "https:\/\/vk.com\/incekb?w=wall-14297077_588037", "descrip": "Сердечный приступ у мужчины. Упал с лестницы пешеходного перехода. Разбил голову, умер.", "address": "ул. Крестинского, д. 62", "place": "point" }, "geometry": { "type": "Point", "coordinates": [ 60.638679017661254, 56.79237606164844 ] } },
{ "type": "Feature", "properties": { "evid": 110, "ex_type": "TRAVM", "exident": "травма", "date": "2018\/03\/17", "time": "16:00", "link": "https:\/\/www.e1.ru\/news\/spool\/news_id-53663021.html", "link2": null, "descrip": "От резкого торможения пассажирского автобуса пожилая пассажирка упала, сломала нос, челюсть.", "address": "ост. Репина", "place": "point" }, "geometry": { "type": "Point", "coordinates": [ 60.561602527252617, 56.827708193310194 ] } },
{ "type": "Feature", "properties": { "evid": 111, "ex_type": "NAPSH", "exident": "наезд на пешехода", "date": "2018\/01\/04", "time": "17:00", "link": "https:\/\/www.e1.ru\/news\/spool\/news_id-53671171.html", "link2": null, "descrip": "Водитель хундай сбил 8-летнюю девочку на пешеходном переходе. Она переходила по зебре на зеленый с мамой. Ушиб мягких тканей.", "address": "ул. Таватуйская", "place": "area" }, "geometry": { "type": "Point", "coordinates": [ 60.541983348094497, 56.868613511532025 ] } },
{ "type": "Feature", "properties": { "evid": 113, "ex_type": "NAPSH", "exident": "наезд на пешехода", "date": "2018\/03\/24", "time": "5 утра", "link": "https:\/\/www.e1.ru\/news\/spool\/news_id-54219721.html", "link2": null, "descrip": "Водитель сбил пешехода и скрылся. Ехал со стороны Опалихинской на Таватуйскую.", "address": "ул. Марата, д. 17", "place": "point" }, "geometry": { "type": "Point", "coordinates": [ 60.550369079624886, 56.856116072976008 ] } },
{ "type": "Feature", "properties": { "evid": 114, "ex_type": "NARCO", "exident": "наркотики", "date": "2018\/03\/24", "time": "вечер", "link": "https:\/\/www.e1.ru\/news\/spool\/news_id-54220911.html", "link2": "https:\/\/www.e1.ru\/news\/spool\/news_id-54222321.html", "descrip": "Прохожие скрутили мужчину, который бросался на машины и пытался в них сесть. Повреждено лобовое у фольксвагена.", "address": "ул. Билимбаевская, д. 32", "place": "area" }, "geometry": { "type": "Point", "coordinates": [ 60.506461790671203, 56.886617259512349 ] } },
{ "type": "Feature", "properties": { "evid": 115, "ex_type": "OGRAB", "exident": "ограбление организации", "date": "2018\/02\/25", "time": "ночь", "link": "https:\/\/www.e1.ru\/news\/spool\/news_id-54221911.html", "link2": null, "descrip": "Трое парней ночью ограбили салон связи.", "address": "ул. Кузнецова, 2а", "place": "point" }, "geometry": { "type": "Point", "coordinates": [ 60.612246456693107, 56.887730830146687 ] } },
{ "type": "Feature", "properties": { "evid": 116, "ex_type": "RAZBJ", "exident": "разбой, грабеж", "date": "2018\/04\/03", "time": "вечер", "link": "http:\/\/www.ural.aif.ru\/incidents\/kulturistam_napadavshim_na_lyudey_v_ekaterinburge_grozit_do_10_let_tyurmy", "link2": null, "descrip": "Двое культуристов нападали на прохожих с гантелями.", "address": "ул. Пионеров", "place": "area" }, "geometry": { "type": "Point", "coordinates": [ 60.626856303405333, 56.856125076618589 ] } },
{ "type": "Feature", "properties": { "evid": 117, "ex_type": "ANOML", "exident": "аномалия", "date": "2018\/02\/26", "time": "12:00", "link": "http:\/\/vedomosti-ural.ru\/news\/64120\/", "link2": null, "descrip": "Попытка рейдерского захвата НПО \"Промавтоматика\"", "address": "ул. Софьи Ковалевской, д. 3", "place": "point" }, "geometry": { "type": "Point", "coordinates": [ 60.65599558455115, 56.841528882280763 ] } },
{ "type": "Feature", "properties": { "evid": 118, "ex_type": "ANOML", "exident": "аномалия", "date": "2018\/04\/16", "time": "день", "link": "http:\/\/www.ural.aif.ru\/incidents\/v_gazeks_rasskazali_o_prichinah_vzryva_v_kvartire_na_himmashe", "link2": "https:\/\/vk.com\/incekb?w=wall-14297077_617220", "descrip": "Взрыв газа в квартире. Самовольное подключение газового оборудования. Выбило рамы, двери, стены.", "address": "ул. Бородина, д. 4", "place": "point" }, "geometry": { "type": "Point", "coordinates": [ 60.701113808721033, 56.750917301603934 ] } },
{ "type": "Feature", "properties": { "evid": 119, "ex_type": "UGONM", "exident": "угон машины", "date": "2018\/03\/16", "time": "4:30", "link": "https:\/\/www.e1.ru\/news\/spool\/news_id-54223091.html", "link2": null, "descrip": "Двое мужчин приехали на фольксвагене, очистили тойоту -короллу от снега, поменяли севший аккумулятор и укатили.", "address": "ул. Педагогическая, д. 16", "place": "point" }, "geometry": { "type": "Point", "coordinates": [ 60.655252476210855, 56.834156040461707 ] } },
{ "type": "Feature", "properties": { "evid": 120, "ex_type": "TRAVM", "exident": "травма", "date": "2018\/03\/25", "time": null, "link": "https:\/\/www.e1.ru\/news\/spool\/news_id-54231091.html", "link2": null, "descrip": "В аквапарке «Лимпопо» девушка застряла в закрытой трубе. Получила ушиб от следующего спускающегося.", "address": "ул. Щербакова, д. 2", "place": "point" }, "geometry": { "type": "Point", "coordinates": [ 60.646603654949523, 56.791430262859372 ] } },
{ "type": "Feature", "properties": { "evid": 122, "ex_type": "NAPSH", "exident": "наезд на пешехода", "date": "2018\/03\/31", "time": null, "link": "https:\/\/www.e1.ru\/news\/spool\/news_id-54249721.html", "link2": null, "descrip": "На Объездной иномарка сбила мужчину, который переходил дорогу на красный свет", "address": "остановка Лесхоз", "place": "point" }, "geometry": { "type": "Point", "coordinates": [ 60.499825701971851, 56.821895992068249 ] } },
{ "type": "Feature", "properties": { "evid": 123, "ex_type": "ANOML", "exident": "аномалия", "date": "2018\/04\/02", "time": "ночь", "link": "https:\/\/www.e1.ru\/news\/spool\/news_id-54253331.html", "link2": "https:\/\/www.ural.kp.ru\/online\/news\/3026759\/", "descrip": "Многократное беспричинное срабатывание сигнализации. Охрана нетрезвая.", "address": "пер. Еланский, 14", "place": "point" }, "geometry": { "type": "Point", "coordinates": [ 60.615533262670148, 56.805453390451937 ] } },
{ "type": "Feature", "properties": { "evid": 107, "ex_type": "UGONM", "exident": "угон машины", "date": "2018\/03\/07", "time": "20:40", "link": "https:\/\/www.e1.ru\/news\/spool\/news_id-53627651.html", "link2": "https:\/\/vk.com\/ugon_avto_v_ekaterinburge?w=wall-81763493_1227", "descrip": "Угнали Мазду-6 из под камер наблюдения во дворе.", "address": "ул. Рассветная, д. 6\/1", "place": "point" }, "geometry": { "type": "Point", "coordinates": [ 60.691051673236089, 56.836621979319553 ] } },
{ "type": "Feature", "properties": { "evid": 124, "ex_type": "VANDL", "exident": "вандализм", "date": "2018\/04\/06", "time": "ночь", "link": "https:\/\/www.e1.ru\/news\/spool\/news_id-54274921.html", "link2": null, "descrip": "Поэтесса и музыкант украли с детской площадки из парка деревянную лошадку.", "address": null, "place": "point" }, "geometry": { "type": "Point", "coordinates": [ 60.650371675564848, 56.847390353902476 ] } },
{ "type": "Feature", "properties": { "evid": 125, "ex_type": "NAPSH", "exident": "наезд на пешехода", "date": "2018\/04\/07", "time": "21:00", "link": "https:\/\/www.e1.ru\/news\/spool\/news_id-54280581.html", "link2": null, "descrip": "Насмерть сбили женщину, переходившую улицу по неосвещенной зебре.", "address": "ул. Сибирский тракт, 8 км., д. 85", "place": "area" }, "geometry": { "type": "Point", "coordinates": [ 60.711761347770327, 56.810278420922906 ] } },
{ "type": "Feature", "properties": { "evid": 126, "ex_type": "NAPSH", "exident": "наезд на пешехода", "date": "2018\/04\/08", "time": "13:45", "link": "https:\/\/www.e1.ru\/news\/spool\/news_id-54281901.html", "link2": null, "descrip": "Водитель поворачивал на Декабристов с Мичурина, не заметил девушку. Повреждена малая берцовая кость. Водитель на освидетельствование.", "address": "ул. Декабристов, д. 6", "place": "point" }, "geometry": { "type": "Point", "coordinates": [ 60.634843853333813, 56.825865094179093 ] } },
{ "type": "Feature", "properties": { "evid": 127, "ex_type": "ANOML", "exident": "аномалия", "date": "2018\/04\/11", "time": "3:35", "link": "https:\/\/www.e1.ru\/news\/spool\/news_id-54294891.html", "link2": null, "descrip": "Ложная сработка пожарной сигнализации.", "address": "ул. Репина, д. 5", "place": "point" }, "geometry": { "type": "Point", "coordinates": [ 60.57358488181341, 56.832384530436805 ] } },
{ "type": "Feature", "properties": { "evid": 128, "ex_type": "NAPSH", "exident": "наезд на пешехода", "date": "2018\/04\/12", "time": "день", "link": "https:\/\/www.e1.ru\/news\/spool\/news_id-54300591.html", "link2": null, "descrip": "Сбили школьника на перекрестке Шейнкмана и Куйбышева. ЧМТ, сотрясение, колено. Мальчика вытолкнули на проезжую часть друзья.", "address": "ул. Куйбышева, д. 21", "place": "point" }, "geometry": { "type": "Point", "coordinates": [ 60.588948465807562, 56.825626890026406 ] } },
{ "type": "Feature", "properties": { "evid": 129, "ex_type": "NAPSH", "exident": "наезд на пешехода", "date": "2018\/04\/12", "time": "8:00", "link": "https:\/\/www.e1.ru\/news\/spool\/news_id-54300591.html", "link2": null, "descrip": "Ребенок выскочил перед машиной в неположенном месте. Перелом пальца на руке.", "address": "ул. Фрунзе, д. 51", "place": "point" }, "geometry": { "type": "Point", "coordinates": [ 60.606933835005329, 56.813149322197418 ] } },
{ "type": "Feature", "properties": { "evid": 130, "ex_type": "NARCO", "exident": "наркотики", "date": "2018\/04\/20", "time": null, "link": "https:\/\/vk.com\/incekb?w=wall-14297077_620310", "link2": null, "descrip": "Точка по продаже наркотиков. Закладки. Шприцы на газонах.", "address": "ул. Просторная, д. 85", "place": "area" }, "geometry": { "type": "Point", "coordinates": [ 60.649263987318768, 56.795616214793405 ] } },
{ "type": "Feature", "properties": { "evid": 131, "ex_type": "ANOML", "exident": "аномалия", "date": "2018\/04\/19", "time": "8:30", "link": "https:\/\/vk.com\/incekb?w=wall-14297077_619922", "link2": null, "descrip": "Пожарные ехали на задымление, но вместо этого спасли от падения из окна мальчика 5-6 лет. Родителей дома не было.", "address": "ул. Умельцев, д. 11", "place": "point" }, "geometry": { "type": "Point", "coordinates": [ 60.583806048439243, 56.759859994040426 ] } },
{ "type": "Feature", "properties": { "evid": 132, "ex_type": "ANOML", "exident": "аномалия", "date": "2018\/04\/19", "time": "13:00", "link": "https:\/\/vk.com\/incekb?w=wall-14297077_619740", "link2": null, "descrip": "Кто-то брызнул перцовым балончиком в вентиляцию. Эвакуируют всю школу № 43.", "address": "ул. Академическая, д. 21", "place": "point" }, "geometry": { "type": "Point", "coordinates": [ 60.65275296461526, 56.851484189576297 ] } },
{ "type": "Feature", "properties": { "evid": 133, "ex_type": "PZHAR", "exident": "пожар", "date": "2018\/04\/19", "time": "12:00", "link": "https:\/\/vk.com\/incekb?w=wall-14297077_619689", "link2": null, "descrip": "Горит что-то в частном секторе.", "address": "Московский тракт, 9 км, д. 16", "place": "point" }, "geometry": { "type": "Point", "coordinates": [ 60.496385544230726, 56.822153802394077 ] } },
{ "type": "Feature", "properties": { "evid": 134, "ex_type": "RAZBJ", "exident": "разбой, грабеж", "date": "2018\/03\/31", "time": null, "link": "https:\/\/vk.com\/incekb?w=wall-14297077_619173", "link2": null, "descrip": "Банда таджиков угрожая ножом ограбила граждан Узбекистана в квартире, где они проживали.", "address": "ул. Санаторная, д. 8а", "place": "point" }, "geometry": { "type": "Point", "coordinates": [ 60.612256155201713, 56.769156580187776 ] } },
{ "type": "Feature", "properties": { "evid": 135, "ex_type": "NAPSH", "exident": "наезд на пешехода", "date": "2018\/04\/18", "time": "день", "link": "https:\/\/vk.com\/incekb?w=wall-14297077_619133", "link2": "https:\/\/www.e1.ru\/news\/spool\/news_id-54327881.html", "descrip": "Светофор не работал. Водитель сбил девочку 10 лет, которая выбежала на дорогу.", "address": "ул. Бакинских комиссаров, д. 173", "place": "point" }, "geometry": { "type": "Point", "coordinates": [ 60.610829176900047, 56.914315534904453 ] } },
{ "type": "Feature", "properties": { "evid": 136, "ex_type": "ANOML", "exident": "аномалия", "date": "2018\/04\/18", "time": null, "link": "https:\/\/vk.com\/incekb?w=wall-14297077_618542", "link2": null, "descrip": "Незаконное подключение к электросети. Накинули провода.", "address": "ул. Ляпустина, д. 81", "place": "point" }, "geometry": { "type": "Point", "coordinates": [ 60.596674828813775, 56.7619865012771 ] } },
{ "type": "Feature", "properties": { "evid": 138, "ex_type": "NAPSH", "exident": "наезд на пешехода", "date": "2018\/04\/17", "time": "день", "link": "https:\/\/vk.com\/incekb?w=wall-14297077_618290", "link2": null, "descrip": "Водитель на митцубиси не уступил дорогу 8-летнему велосипедисту на дублере вдоль Шаманова. У мальчика ЧМТ.", "address": "ул. Шаманова, д. 17", "place": "point" }, "geometry": { "type": "Point", "coordinates": [ 60.517145920831062, 56.787907761581415 ] } },
{ "type": "Feature", "properties": { "evid": 139, "ex_type": "ANOML", "exident": "аномалия", "date": "2018\/04\/16", "time": null, "link": "https:\/\/vk.com\/incekb?w=wall-14297077_617204", "link2": null, "descrip": "Брошенная машина на дороге. Гаишники бездействуют.", "address": "ул. Трудовая", "place": "area" }, "geometry": { "type": "Point", "coordinates": [ 60.729166552706623, 56.88744391837767 ] } },
{ "type": "Feature", "properties": { "evid": 140, "ex_type": "PRCHE", "exident": "пропал человек", "date": "2018\/04\/14", "time": "вечер", "link": "https:\/\/vk.com\/incekb?w=wall-14297077_615682", "link2": null, "descrip": "Мама с ребенком вышли из детсада и пропали, телефон не отвечает.", "address": "ул. Шефская, д. 89а", "place": "area" }, "geometry": { "type": "Point", "coordinates": [ 60.619950557443069, 56.905035260860672 ] } },
{ "type": "Feature", "properties": { "evid": 141, "ex_type": "VANDL", "exident": "вандализм", "date": "2018\/04\/11", "time": "16:00", "link": "https:\/\/vk.com\/incekb?w=wall-14297077_612891", "link2": null, "descrip": "Дети бросали камни в проезжающие машины. Разбили стекло в автобусе.", "address": "Сибирский тракт 7 км, д. 8\/1", "place": "point" }, "geometry": { "type": "Point", "coordinates": [ 60.687303983025508, 56.81338803684752 ] } },
{ "type": "Feature", "properties": { "evid": 142, "ex_type": "ANOML", "exident": "аномалия", "date": "2018\/04\/11", "time": null, "link": "http:\/\/ngzt.ru\/accidents\/view\/11-04-2018-u-nee-est-otkloneniya-v-ekaterinburge-pensionerku-obvinili-v-popytke-uvesti-chujogo-rebenka-iz-detskogo-sada", "link2": null, "descrip": "Пенсионерка с психическими отклонениями пыталась увести из детсада чужого ребенка.", "address": "ул. Рощинская, д. 25", "place": "point" }, "geometry": { "type": "Point", "coordinates": [ 60.667100518640481, 56.781437905795634 ] } },
{ "type": "Feature", "properties": { "evid": 143, "ex_type": "NAPSH", "exident": "наезд на пешехода", "date": "2018\/04\/10", "time": "23:00", "link": "https:\/\/vk.com\/incekb?w=wall-14297077_612195", "link2": null, "descrip": "Человека сбили. Реанимация.", "address": "ул. Бебеля, д. 121", "place": "point" }, "geometry": { "type": "Point", "coordinates": [ 60.549529028513909, 56.869096051945121 ] } },
{ "type": "Feature", "properties": { "evid": 144, "ex_type": "TRAVM", "exident": "травма", "date": "2018\/04\/19", "time": "утро", "link": "http:\/\/www.ural.aif.ru\/incidents\/sverdlovskiy_sk_vyyasnil_pochemu_studentka_postradala_pri_remonte_obshchezhitiya", "link2": null, "descrip": "Во время ремонта окон строитель сбросил старое окно вниз и попал в студентку. ЧМТ.", "address": "ул. Посадская, д. 79", "place": "point" }, "geometry": { "type": "Point", "coordinates": [ 60.586303569287111, 56.817764603617029 ] } },
{ "type": "Feature", "properties": { "evid": 145, "ex_type": "ANOML", "exident": "аномалия", "date": "2018\/04\/23", "time": null, "link": "http:\/\/www.ural.aif.ru\/incidents\/v_ekaterinburge_nashli_otca_broshennogo_malchika", "link2": "http:\/\/www.ural.aif.ru\/incidents\/v_ekaterinburge_razyskivayut_roditeley_broshennogo_malysha", "descrip": "Брошеный ребенок трех лет. Мать пьет, отец нашелся.", "address": "пр. Ленина, д. 24\/8", "place": "point" }, "geometry": { "type": "Point", "coordinates": [ 60.594450288633773, 56.837111513089354 ] } },
{ "type": "Feature", "properties": { "evid": 146, "ex_type": "PADOK", "exident": "падение из окна", "date": "2018\/04\/29", "time": "поздний вечер", "link": "https:\/\/www.e1.ru\/news\/spool\/news_id-54376501.html", "link2": null, "descrip": "Девушка подросток выпала из окна 6 этажа. Увезли в 9 больницу.", "address": "ул. Надеждинская, д. 20", "place": "point" }, "geometry": { "type": "Point", "coordinates": [ 60.541383002657348, 56.871377939943685 ] } },
{ "type": "Feature", "properties": { "evid": 147, "ex_type": "TERCO", "exident": "территориальный конфликт", "date": "2018\/04\/27", "time": "вечер", "link": "https:\/\/www.e1.ru\/news\/spool\/news_id-54371031.html", "link2": null, "descrip": "Из-за оцепления пр. Ленина во время репетиции парада родители не смогли пройти в школу № 9 и забрать детей.", "address": "пр. Ленина, д. 33", "place": "point" }, "geometry": { "type": "Point", "coordinates": [ 60.600073519479871, 56.838427578951965 ] } },
{ "type": "Feature", "properties": { "evid": 148, "ex_type": "ANOML", "exident": "аномалия", "date": "2018\/04\/27", "time": null, "link": "https:\/\/www.e1.ru\/news\/spool\/news_id-54369771.html", "link2": null, "descrip": "Екатеринбургскую школу-интернат закрыли на карантин.\nЕе воспитанникии подхватили кишечную инфекцию.", "address": "ул. Даниловская, д. 2д", "place": "point" }, "geometry": { "type": "Point", "coordinates": [ 60.64764941496815, 56.896171590394651 ] } },
{ "type": "Feature", "properties": { "evid": 149, "ex_type": "ANOML", "exident": "аномалия", "date": "2018\/04\/16", "time": null, "link": "https:\/\/www.e1.ru\/news\/spool\/news_id-54316991.html", "link2": null, "descrip": "Закрыли школу из-за нескольких случаев отравления.", "address": "ул. С.Дерябиной, д. 49а", "place": "point" }, "geometry": { "type": "Point", "coordinates": [ 60.548149903978661, 56.805467079473601 ] } },
{ "type": "Feature", "properties": { "evid": 150, "ex_type": "PADOK", "exident": "падение из окна", "date": "2018\/04\/25", "time": "день", "link": "https:\/\/www.e1.ru\/news\/spool\/news_id-54359531.html", "link2": null, "descrip": "10-летний ребенок выпал с 14 этажа. Не спасли.", "address": "ул. Опалихинская, д. 40", "place": "point" }, "geometry": { "type": "Point", "coordinates": [ 60.55795446505671, 56.854935693838847 ] } },
{ "type": "Feature", "properties": { "evid": 151, "ex_type": "PADOK", "exident": "падение из окна", "date": "2018\/04\/25", "time": "день", "link": "https:\/\/www.e1.ru\/news\/spool\/news_id-54359191.html", "link2": null, "descrip": "Девушка выпала с общего балкона на 25 этаже. здесь подростки лазят на крышу.", "address": "ул. Рассветная, д. 6\/2", "place": "point" }, "geometry": { "type": "Point", "coordinates": [ 60.690624581831386, 56.837934954577307 ] } },
{ "type": "Feature", "properties": { "evid": 152, "ex_type": "ANOML", "exident": "аномалия", "date": "2018\/04\/13", "time": null, "link": "https:\/\/www.e1.ru\/news\/spool\/news_id-54306821.html", "link2": null, "descrip": "Таможня задержала пассажира, который в баулах перевозил 2000 гвоздик.", "address": "пл. Бахчиванджи, д. 1", "place": "point" }, "geometry": { "type": "Point", "coordinates": [ 60.803686843701051, 56.75013457350839 ] } },
{ "type": "Feature", "properties": { "evid": 153, "ex_type": "NAPSH", "exident": "наезд на пешехода", "date": "2018\/04\/22", "time": "4:52", "link": "https:\/\/www.e1.ru\/news\/spool\/news_id-54342331.html", "link2": null, "descrip": "Мерседес сбил пешехода, перебегавшего дорогу в неположенном месте. Тот мгновенно погиб.", "address": "ул. Донбасская, д. 37", "place": "point" }, "geometry": { "type": "Point", "coordinates": [ 60.5634794657607, 56.885011161006815 ] } },
{ "type": "Feature", "properties": { "evid": 154, "ex_type": "ANOML", "exident": "аномалия", "date": "2018\/04\/22", "time": null, "link": "https:\/\/www.e1.ru\/news\/spool\/news_id-54343221.html", "link2": null, "descrip": "Бетонная плита забора упала на автомобиль, стоявший на платной парковке.", "address": "ул. Мира, д. 42", "place": "area" }, "geometry": { "type": "Point", "coordinates": [ 60.657900892042647, 56.832474212997504 ] } },
{ "type": "Feature", "properties": { "evid": 155, "ex_type": "PADOK", "exident": "падение из окна", "date": "2018\/04\/23", "time": "22:00", "link": "https:\/\/www.e1.ru\/news\/spool\/news_id-54349381.html", "link2": null, "descrip": "Мужчина пытался перелезть в окно своей квартиры, от которой забыл ключ. Сорвался. Жив. В больнице.", "address": "пр. Ленина, д. 52\/2", "place": "point" }, "geometry": { "type": "Point", "coordinates": [ 60.624730483148582, 56.8388696008832 ] } },
{ "type": "Feature", "properties": { "evid": 156, "ex_type": "UGONM", "exident": "угон машины", "date": "2018\/04\/18", "time": "раннее утро, 10:15", "link": "https:\/\/www.e1.ru\/news\/spool\/news_id-54352071.html", "link2": null, "descrip": "Двойной угон. 5 марта - БМВ х5, 18 апреля - Хонда ЦРВ.", "address": "ул. Авиационная, д. 16", "place": "point" }, "geometry": { "type": "Point", "coordinates": [ 60.605130868896183, 56.802604194914643 ] } },
{ "type": "Feature", "properties": { "evid": 157, "ex_type": "PZHAR", "exident": "пожар", "date": "2018\/05\/01", "time": "3:20", "link": "https:\/\/www.e1.ru\/news\/spool\/news_id-54380061.html", "link2": null, "descrip": "Пожар в кафе.", "address": "ул. Ключевская, д. 18", "place": "point" }, "geometry": { "type": "Point", "coordinates": [ 60.565329221766298, 56.833118038250575 ] } },
{ "type": "Feature", "properties": { "evid": 158, "ex_type": "NAPSH", "exident": "наезд на пешехода", "date": "2018\/03\/22", "time": "20:15", "link": "http:\/\/vedomosti-ural.ru\/news\/64643\/", "link2": null, "descrip": "Водитель на шкоде сбил пешехода, переходившего ЕКАД.", "address": "ЕКАД, 10 км., д. 1", "place": "point" }, "geometry": { "type": "Point", "coordinates": [ 60.791386294144765, 56.810575035681936 ] } },
{ "type": "Feature", "properties": { "evid": 159, "ex_type": "NAPSH", "exident": "наезд на пешехода", "date": "2018\/03\/22", "time": null, "link": null, "link2": null, "descrip": "Водитель без прав сбил пешехода и врезался в стоявшее рядом ТС. Пешеход с переломом позвоночника в больнице.", "address": "ул. Завокзальная, д. 26\/1", "place": "area" }, "geometry": { "type": "Point", "coordinates": [ 60.599037686426591, 56.865880116290292 ] } },
{ "type": "Feature", "properties": { "evid": 160, "ex_type": "PADOK", "exident": "падение из окна", "date": "2018\/04\/13", "time": null, "link": "http:\/\/vedomosti-ural.ru\/news\/65162\/", "link2": null, "descrip": "Журналист Максим Бородин выпал с пятого этажа. Большие подозрения на убийство.", "address": "ул. Восточная, д. 38", "place": "point" }, "geometry": { "type": "Point", "coordinates": [ 60.628068759837006, 56.84672432414191 ] } },
{ "type": "Feature", "properties": { "evid": 161, "ex_type": "TERCO", "exident": "территориальный конфликт", "date": "2018\/04\/20", "time": null, "link": "http:\/\/vedomosti-ural.ru\/news\/65333\/", "link2": null, "descrip": "Снос незаконного торгового павильона.", "address": "ул. Индустрии, д. 33", "place": "point" }, "geometry": { "type": "Point", "coordinates": [ 60.595734219480676, 56.897248908331989 ] } },
{ "type": "Feature", "properties": { "evid": 162, "ex_type": "ANOML", "exident": "аномалия", "date": "2018\/04\/24", "time": null, "link": "http:\/\/vedomosti-ural.ru\/news\/65404\/", "link2": null, "descrip": "Квадроцикл выехал на тонкий лёд и провалился в озеро. Никто не пострадал.", "address": "п. Коптяки", "place": "area" }, "geometry": { "type": "Point", "coordinates": [ 60.433572354631579, 56.974284580798383 ] } },
{ "type": "Feature", "properties": { "evid": 163, "ex_type": "ANOML", "exident": "аномалия", "date": "2018\/04\/27", "time": null, "link": "http:\/\/vedomosti-ural.ru\/news\/65494\/", "link2": null, "descrip": "Ещё один взрыв на месте телебашни. Рушат основание.", "address": null, "place": "point" }, "geometry": { "type": "Point", "coordinates": [ 60.608814173517594, 56.82447797986552 ] } },
{ "type": "Feature", "properties": { "evid": 164, "ex_type": "NAPSH", "exident": "наезд на пешехода", "date": "2018\/04\/09", "time": "ночь", "link": "https:\/\/www.e1.ru\/news\/spool\/news_id-54282571.html", "link2": null, "descrip": "Женщина сидела рядом с жд путями в габарите поезда. Поезд не успел затормозить. Насмерть.", "address": "жд ст. Керамик", "place": "area" }, "geometry": { "type": "Point", "coordinates": [ 60.60925719807765, 56.752150196605434 ] } },
{ "type": "Feature", "properties": { "evid": 165, "ex_type": "NAPSH", "exident": "наезд на пешехода", "date": "2018\/04\/07", "time": null, "link": "https:\/\/vk.com\/incekb?w=wall-14297077_608494", "link2": null, "descrip": "Водителя ослепило солнце. Сбил 17-летнего школьника, когда тот переходил дорогу на зеленый.", "address": "ул. Куйбышева, д. 21", "place": "point" }, "geometry": { "type": "Point", "coordinates": [ 60.591973700109179, 56.825988912385668 ] } },
{ "type": "Feature", "properties": { "evid": 166, "ex_type": "NAPSH", "exident": "наезд на пешехода", "date": "2018\/04\/04", "time": "вечер", "link": "https:\/\/www.e1.ru\/news\/spool\/news_id-54267771-section_id-13.html", "link2": null, "descrip": "Ребенок едва не угодил под автобус, переходя на зеленый свет.", "address": "ул. 8 Марта, д. 110", "place": "point" }, "geometry": { "type": "Point", "coordinates": [ 60.608269778248598, 56.813287142252875 ] } },
{ "type": "Feature", "properties": { "evid": 167, "ex_type": "NARCO", "exident": "наркотики", "date": "2018\/04\/04", "time": "16:30", "link": "https:\/\/vk.com\/incekb?w=wall-14297077_605777", "link2": null, "descrip": "Неизвестные ищут закладки в гаражах.Долго ищут.", "address": "ул. Белореченская, д. 17\/6", "place": "point" }, "geometry": { "type": "Point", "coordinates": [ 60.568672217155289, 56.816745733806194 ] } },
{ "type": "Feature", "properties": { "evid": 168, "ex_type": "BSPRD", "exident": "беспорядки", "date": "2018\/04\/02", "time": "день", "link": "https:\/\/inburg.ru\/na-shorsa-zakonchilas-pogonya-38596", "link2": null, "descrip": "Погоня ГИБДД за пятеркой. Водитель заехал на парковку, бежал, но был пойман.", "address": "ул. Щорса, д. 128", "place": "point" }, "geometry": { "type": "Point", "coordinates": [ 60.598216434587002, 56.807543369147787 ] } },
{ "type": "Feature", "properties": { "evid": 169, "ex_type": "ANOML", "exident": "аномалия", "date": "2018\/03\/26", "time": "утро", "link": "https:\/\/vk.com\/incekb?w=wall-14297077_595769", "link2": null, "descrip": "С верхних этажей сбросили холодильник на тротуар.", "address": "ул. Металлургов, д. 32а", "place": "point" }, "geometry": { "type": "Point", "coordinates": [ 60.538322574196613, 56.827172785776973 ] } },
{ "type": "Feature", "properties": { "evid": 170, "ex_type": "ANOML", "exident": "аномалия", "date": "2018\/03\/22", "time": "день", "link": "https:\/\/vk.com\/incekb?w=wall-14297077_592340", "link2": null, "descrip": "Онанист - эксгибиционист пристает к детям и девушкам.", "address": "пр. Космонавтов, д. 45", "place": "point" }, "geometry": { "type": "Point", "coordinates": [ 60.613334468660582, 56.902760767370303 ] } },
{ "type": "Feature", "properties": { "evid": 171, "ex_type": "NAPSH", "exident": "наезд на пешехода", "date": "2018\/03\/22", "time": "день", "link": "https:\/\/vk.com\/incekb?w=wall-14297077_592336", "link2": null, "descrip": "Водитель сбил девушку, посадил к себе в машину и повез куда-то...", "address": "ул. Луначарского, д. 48", "place": "point" }, "geometry": { "type": "Point", "coordinates": [ 60.616310934199923, 56.851313352272705 ] } },
{ "type": "Feature", "properties": { "evid": 172, "ex_type": "ANOML", "exident": "аномалия", "date": "2018\/03\/22", "time": null, "link": "https:\/\/vk.com\/incekb?w=wall-14297077_592284", "link2": null, "descrip": "Контрабанда парфюмерного масла.", "address": "пл. Бахчиванджи, д. 1", "place": "point" }, "geometry": { "type": "Point", "coordinates": [ 60.802935539832731, 56.749910057729458 ] } },
{ "type": "Feature", "properties": { "evid": 174, "ex_type": "VANDL", "exident": "вандализм", "date": "2018\/03\/18", "time": "24:00 - 1:00", "link": "https:\/\/vk.com\/incekb?w=wall-14297077_588918", "link2": null, "descrip": "Ночью разбили зеркало заднего видав у припаркованной машины.", "address": "ул. Пионеров, д. 9\/1", "place": "area" }, "geometry": { "type": "Point", "coordinates": [ 60.627254711989281, 56.85691197403527 ] } },
{ "type": "Feature", "properties": { "evid": 175, "ex_type": "NAPSH", "exident": "наезд на пешехода", "date": "2018\/03\/18", "time": "день", "link": "https:\/\/vk.com\/incekb?w=wall-14297077_588753", "link2": null, "descrip": "Сбили пешехода.", "address": "ул. Советская, д. 20", "place": "point" }, "geometry": { "type": "Point", "coordinates": [ 60.633980500256015, 56.853079084206499 ] } },
{ "type": "Feature", "properties": { "evid": 176, "ex_type": "NAPSH", "exident": "наезд на пешехода", "date": "2018\/03\/15", "time": "23:00", "link": "https:\/\/www.e1.ru\/news\/spool\/news_id-53650201.html", "link2": null, "descrip": "Грузовой поезд сбил пешехода, который не отреагировал на сигналы.", "address": "ст. Кольцово", "place": "area" }, "geometry": { "type": "Point", "coordinates": [ 60.825417468845288, 56.758533141203522 ] } },
{ "type": "Feature", "properties": { "evid": 177, "ex_type": "NAPSH", "exident": "наезд на пешехода", "date": "2018\/03\/15", "time": "7:00", "link": "https:\/\/vk.com\/incekb?w=wall-14297077_585880", "link2": null, "descrip": "Машина сбила девушку. Та встала и пошла.", "address": "ост. Дружининская", "place": "point" }, "geometry": { "type": "Point", "coordinates": [ 60.50344760828559, 56.881504314369167 ] } },
{ "type": "Feature", "properties": { "evid": 178, "ex_type": "ANOML", "exident": "аномалия", "date": "2018\/03\/14", "time": "2:40", "link": "https:\/\/vk.com\/incekb?w=wall-14297077_584907", "link2": null, "descrip": "Молодежь громко слушала музыку в машине и ругалась с жильцами дома.", "address": "ул. Инженерная, д. 12", "place": "point" }, "geometry": { "type": "Point", "coordinates": [ 60.710559091067857, 56.748694511325624 ] } },
{ "type": "Feature", "properties": { "evid": 179, "ex_type": "NAPSH", "exident": "наезд на пешехода", "date": "2018\/03\/13", "time": "9:00", "link": "https:\/\/vk.com\/incekb?w=wall-14297077_584543", "link2": null, "descrip": "Девочка 14 лет бежала на маршрутку и чуть не попала под трамвай.", "address": "ул. Техническая, д. 12\/2", "place": "point" }, "geometry": { "type": "Point", "coordinates": [ 60.547830838246234, 56.861059846312344 ] } },
{ "type": "Feature", "properties": { "evid": 180, "ex_type": "VANDL", "exident": "вандализм", "date": "2018\/03\/10", "time": null, "link": "https:\/\/vk.com\/incekb?w=wall-14297077_582401", "link2": null, "descrip": "Разбили окна в машине. Были и другие машины повреждены до этого.", "address": "ул. Парниковая, д. 6", "place": "area" }, "geometry": { "type": "Point", "coordinates": [ 60.617424655070771, 56.907644474511244 ] } },
{ "type": "Feature", "properties": { "evid": 182, "ex_type": "NAPSH", "exident": "наезд на пешехода", "date": "2018\/03\/06", "time": "8:30", "link": "https:\/\/vk.com\/incekb?w=wall-14297077_578992", "link2": null, "descrip": "ДТП двух машин. Зацепило женщину пешехода.", "address": "ул. Баумана, д. 20", "place": "point" }, "geometry": { "type": "Point", "coordinates": [ 60.625022988699222, 56.890885963844092 ] } },
{ "type": "Feature", "properties": { "evid": 183, "ex_type": "NAPSH", "exident": "наезд на пешехода", "date": "2018\/03\/04", "time": "день", "link": "https:\/\/vk.com\/incekb?w=wall-14297077_577178", "link2": "https:\/\/vk.com\/incekb?w=wall-14297077_576977", "descrip": "Трамвай сбил насмерть пожилого мужчину, переходившего пути на запрещающий сигнал.", "address": "ул. Машиностроителей, д. 2", "place": "point" }, "geometry": { "type": "Point", "coordinates": [ 60.598230877222598, 56.8865889696105 ] } },
{ "type": "Feature", "properties": { "evid": 184, "ex_type": "TERCO", "exident": "территориальный конфликт", "date": "2018\/03\/03", "time": "утро", "link": "https:\/\/vk.com\/incekb?w=wall-14297077_576097", "link2": null, "descrip": "Машину скорой не пускают за забор вокруг вокзала.", "address": "ул. Вокзальная, д. 22", "place": "point" }, "geometry": { "type": "Point", "coordinates": [ 60.605980587035667, 56.857964066801394 ] } },
{ "type": "Feature", "properties": { "evid": 185, "ex_type": "NAPSH", "exident": "наезд на пешехода", "date": "2018\/03\/02", "time": "день", "link": "https:\/\/vk.com\/incekb?w=wall-14297077_575599", "link2": "https:\/\/vk.com\/incekb?w=wall-14297077_575500", "descrip": "Водитель автобуса ехал на красный, сбил пешехода, протащил его. Человек остался жив.", "address": "ул. Чайковского, д. 56", "place": "point" }, "geometry": { "type": "Point", "coordinates": [ 60.620123386182321, 56.809453630339263 ] } },
{ "type": "Feature", "properties": { "evid": 186, "ex_type": "NAPSH", "exident": "наезд на пешехода", "date": "2018\/02\/06", "time": "день", "link": "https:\/\/vk.com\/incekb?w=wall-14297077_571462", "link2": null, "descrip": "Водитель ВАЗа сбил девочку 13 лет, перебегавшую проезд. ЧМТ.", "address": "ул. Восточная, д. 76", "place": "point" }, "geometry": { "type": "Point", "coordinates": [ 60.633733792254056, 56.835910131221731 ] } },
{ "type": "Feature", "properties": { "evid": 187, "ex_type": "NAPSH", "exident": "наезд на пешехода", "date": "2018\/02\/22", "time": "12:30", "link": "https:\/\/vk.com\/incekb?w=wall-14297077_568407", "link2": null, "descrip": "Грузовик задел зеркалом женщину.", "address": "ост. Контрольная", "place": "point" }, "geometry": { "type": "Point", "coordinates": [ 60.52337407560676, 56.815996666401773 ] } },
{ "type": "Feature", "properties": { "evid": 188, "ex_type": "NAPSH", "exident": "наезд на пешехода", "date": "2018\/02\/20", "time": "вечер", "link": "https:\/\/www.e1.ru\/news\/spool\/news_id-53560301-section_id-13.html", "link2": null, "descrip": "Трамвай сбил пешехода на рельсах.", "address": "ул. 8 Марта, д. 82", "place": "area" }, "geometry": { "type": "Point", "coordinates": [ 60.605991046474998, 56.819538644098429 ] } },
{ "type": "Feature", "properties": { "evid": 189, "ex_type": "NAPSH", "exident": "наезд на пешехода", "date": "2018\/02\/18", "time": "день", "link": "https:\/\/vk.com\/incekb?w=wall-14297077_564104", "link2": null, "descrip": "Сбили пешехода.", "address": "ул. Высоцкого, д. 12", "place": "point" }, "geometry": { "type": "Point", "coordinates": [ 60.675092293642727, 56.842021099520075 ] } },
{ "type": "Feature", "properties": { "evid": 190, "ex_type": "VANDL", "exident": "вандализм", "date": "2018\/02\/18", "time": "ночь", "link": "https:\/\/vk.com\/incekb?w=wall-14297077_563992", "link2": null, "descrip": "Разбили в машине стекло, но ничего не взяли.", "address": "ул. Шаумяна, д. 107", "place": "point" }, "geometry": { "type": "Point", "coordinates": [ 60.558163348375174, 56.816878224615003 ] } },
{ "type": "Feature", "properties": { "evid": 191, "ex_type": "ANOML", "exident": "аномалия", "date": "2018\/06\/04", "time": "7:40", "link": "https:\/\/www.e1.ru\/news\/spool\/news_id-55367041.html", "link2": null, "descrip": "Огромные очереди на входе в метро из-за медленной работы полиции на ленте по проверке багажа.", "address": "станция метро \"Проспект Космонавтов\"", "place": "point" }, "geometry": { "type": "Point", "coordinates": [ 60.613554650006691, 56.901827019494121 ] } },
{ "type": "Feature", "properties": { "evid": 195, "ex_type": "ANOML", "exident": "аномалия", "date": "2018\/05\/28", "time": null, "link": "https:\/\/www.e1.ru\/news\/spool\/news_id-54689761.html", "link2": null, "descrip": "Незаконная свалка в лесу", "address": null, "place": "area" }, "geometry": { "type": "Point", "coordinates": [ 60.670483781017957, 56.916272466938004 ] } },
{ "type": "Feature", "properties": { "evid": 196, "ex_type": "NAPSH", "exident": "наезд на пешехода", "date": "2018\/05\/24", "time": "день", "link": "https:\/\/www.e1.ru\/news\/spool\/news_id-54476221.html", "link2": null, "descrip": "Мужчина на Ауди сбил 8-летнюю школьницу на нерегулируемом пешеходном переходе. Перелом голени.", "address": "ул. Комсомольская, д. 63", "place": "point" }, "geometry": { "type": "Point", "coordinates": [ 60.66055342064508, 56.838524764494174 ] } },
{ "type": "Feature", "properties": { "evid": 348, "ex_type": "TRUPP", "exident": "труп", "date": "2017\/10\/01", "time": null, "link": "http:\/\/www.e1.ru\/news\/spool\/news_id-478299.html", "link2": null, "descrip": "собачники нашли в парке повешенного", "address": null, "place": "area" }, "geometry": { "type": "Point", "coordinates": [ 60.555288802961719, 56.887297637222318 ] } },
{ "type": "Feature", "properties": { "evid": 193, "ex_type": "NAPSH", "exident": "наезд на пешехода", "date": "2018\/06\/05", "time": "22:20", "link": "https:\/\/www.e1.ru\/news\/spool\/news_id-55376801.html", "link2": null, "descrip": "Водитель легковушки сбил мужчину и женщину, переходивших дорогу на зеленый.", "address": "пр. Космонавтов, д. 80б", "place": "point" }, "geometry": { "type": "Point", "coordinates": [ 60.613834982487745, 56.904817971489599 ] } },
{ "type": "Feature", "properties": { "evid": 173, "ex_type": "ZHIVO", "exident": "живодеры", "date": "2018\/03\/20", "time": "17:30", "link": "https:\/\/vk.com\/incekb?w=wall-14297077_590237", "link2": null, "descrip": "Серийная живодерка. Просит денег ради содержания приюта.", "address": "пер. Театральный, д. 4", "place": "point" }, "geometry": { "type": "Point", "coordinates": [ 60.598127269105419, 56.836069801019448 ] } },
{ "type": "Feature", "properties": { "evid": 194, "ex_type": "UGONM", "exident": "угон машины", "date": "2018\/05\/30", "time": "11:36", "link": "https:\/\/www.e1.ru\/news\/spool\/news_id-55355201.html", "link2": "https:\/\/vk.com\/ugon_avto_v_ekaterinburge?w=wall-81763493_1314", "descrip": "Угнали машину, отключив сигнализацию. Мужчина проник в машину через заднюю дверь.", "address": "ул. Шварца, д. 14", "place": "point" }, "geometry": { "type": "Point", "coordinates": [ 60.625321483059658, 56.795676232007146 ] } },
{ "type": "Feature", "properties": { "evid": 197, "ex_type": "PZHOG", "exident": "поджог", "date": "2017\/09\/04", "time": "05:50:00", "link": "https:\/\/newizv.ru\/news\/incident\/04-09-2017\/v-ekaterinburge-furgon-s-gazovymi-ballonami-protaranil-kinoteatr", "link2": null, "descrip": "Поджог входной группы кинотеатра Космос.", "address": "ул. Дзержинского, д. 2", "place": "point" }, "geometry": { "type": "Point", "coordinates": [ 60.604794064757627, 56.845091425052644 ] } },
{ "type": "Feature", "properties": { "evid": 198, "ex_type": "PZHOG", "exident": "поджог", "date": "2017\/09\/04", "time": "01:27:00", "link": "http:\/\/www.e1.ru\/news\/spool\/news_id-476436.html", "link2": null, "descrip": "В закрытом дворе подожгли иномарку полицейского.", "address": "ул. Серафимы Дерябиной, д. 37", "place": "point" }, "geometry": { "type": "Point", "coordinates": [ 60.553714023703598, 56.814503786888757 ] } },
{ "type": "Feature", "properties": { "evid": 199, "ex_type": "PZHOG", "exident": "поджог", "date": "2017\/10\/08", "time": "вечер", "link": "http:\/\/www.e1.ru\/news\/spool\/news_id-478828.html", "link2": null, "descrip": "Подростки подожгли расселяемый дом.", "address": "пер. Высокий, д. 4А", "place": "point" }, "geometry": { "type": "Point", "coordinates": [ 60.709730094869713, 56.761274212071584 ] } },
{ "type": "Feature", "properties": { "evid": 200, "ex_type": "PZHOG", "exident": "поджог", "date": "2017\/10\/15", "time": "ночь", "link": "http:\/\/www.e1.ru\/news\/spool\/news_id-479285.html", "link2": null, "descrip": "Один автомобиль продожгли, с другого сняли аккумулятор.", "address": "ул. Ильича, д. 46", "place": "point" }, "geometry": { "type": "Point", "coordinates": [ 60.607960268124266, 56.896111961797473 ] } },
{ "type": "Feature", "properties": { "evid": 201, "ex_type": "PZHOG", "exident": "поджог", "date": "2017\/12\/03", "time": "вечер", "link": "http:\/\/www.e1.ru\/news\/spool\/news_id-482983.html", "link2": null, "descrip": "Подожгли иномарку, бросив бутылку с зажигательной смесью.", "address": "ул. Тверитина, д. 41А", "place": "point" }, "geometry": { "type": "Point", "coordinates": [ 60.626474483589838, 56.821992625805095 ] } },
{ "type": "Feature", "properties": { "evid": 202, "ex_type": "PZHOG", "exident": "поджог", "date": "2017\/08\/23", "time": "ночь", "link": "http:\/\/www.e1.ru\/news\/spool\/news_id-475376.html", "link2": null, "descrip": "Одна машина сгорела, две рядом пострадали.", "address": "ул. Фурманова, д. 123", "place": "point" }, "geometry": { "type": "Point", "coordinates": [ 60.586014485568747, 56.812704256868535 ] } },
{ "type": "Feature", "properties": { "evid": 203, "ex_type": "PZHOG", "exident": "поджог", "date": "2017\/09\/08", "time": "22:20:00", "link": "http:\/\/www.e1.ru\/news\/spool\/news_id-476736.html", "link2": null, "descrip": "У машины выгорел моторный отсек и салон. В эту же ночь неподалеку сгорело еще две машины.", "address": "ул. Литовская, д. 29", "place": "point" }, "geometry": { "type": "Point", "coordinates": [ 60.773348363714511, 56.790562615989714 ] } },
{ "type": "Feature", "properties": { "evid": 204, "ex_type": "PZHOG", "exident": "поджог", "date": "2018\/02\/13", "time": "ночь", "link": "https:\/\/www.e1.ru\/news\/spool\/news_id-53519781.html", "link2": null, "descrip": "В коллективном саду Солнечный разом сгорело два дома", "address": "СНТ \"Солнечный\"", "place": "area" }, "geometry": { "type": "Point", "coordinates": [ 60.335339679430326, 56.835964440106544 ] } },
{ "type": "Feature", "properties": { "evid": 205, "ex_type": "PZHOG", "exident": "поджог", "date": "2017\/08\/23", "time": "ночь", "link": "http:\/\/www.ural.aif.ru\/incidents\/chp\/nochyu_v_ekaterinburge_neizvestnye_spalili_audi_q5", "link2": null, "descrip": "Один поджог на ул. Фурманова, второй — на Избирателей.", "address": "ул. Избирателей, д. 5", "place": "point" }, "geometry": { "type": "Point", "coordinates": [ 60.604927028624751, 56.898803347580191 ] } },
{ "type": "Feature", "properties": { "evid": 206, "ex_type": "PZHOG", "exident": "поджог", "date": "2017\/11\/04", "time": "ночь", "link": "https:\/\/www.e1.ru\/news\/spool\/news_id-480772.html", "link2": null, "descrip": "Сгорело разом три дома. Подозревают поджог.", "address": "СНТ \"Хрустальный\"", "place": "area" }, "geometry": { "type": "Point", "coordinates": [ 60.367119950202195, 56.84381707717732 ] } },
{ "type": "Feature", "properties": { "evid": 207, "ex_type": "PZHOG", "exident": "поджог", "date": "2018\/02\/13", "time": "ночь", "link": "http:\/\/www.e1.ru\/news\/spool\/news_id-53519901.html", "link2": null, "descrip": "Сгорело два дома на расстоянии 150 м. друг от друга.", "address": "СНТ \"Хрустальный\"", "place": "area" }, "geometry": { "type": "Point", "coordinates": [ 60.371071903177253, 56.842078664170607 ] } },
{ "type": "Feature", "properties": { "evid": 208, "ex_type": "PZHOG", "exident": "поджог", "date": "2017\/09\/13", "time": "00:30:00", "link": "http:\/\/ngzt.ru\/auto\/view\/13-09-2017-nochyu-v-ekaterinburge-v-odnom-dvore-sgoreli-chetyre-avtomobilya", "link2": null, "descrip": "В одном дворе сразу четыре автомобиля сгорело.", "address": "ул. Решетникова, д. 1", "place": "point" }, "geometry": { "type": "Point", "coordinates": [ 60.572669375571806, 56.79772143935093 ] } },
{ "type": "Feature", "properties": { "evid": 209, "ex_type": "PZHOG", "exident": "поджог", "date": "2018\/01\/03", "time": null, "link": "http:\/\/www.e1.ru\/news\/spool\/news_id-484969.html", "link2": null, "descrip": "Повторный поджог дома под расселение но с жильцами", "address": "ул. Даниловская, д. 22", "place": "point" }, "geometry": { "type": "Point", "coordinates": [ 60.641109825841404, 56.900866310277472 ] } },
{ "type": "Feature", "properties": { "evid": 210, "ex_type": "PZHOG", "exident": "поджог", "date": "2018\/01\/16", "time": "раннее утро", "link": "https:\/\/www.e1.ru\/news\/spool\/news_id-485526.html", "link2": null, "descrip": "Рядом с новостройками подожгли старый расселенный барак.", "address": "г. Березовский, ул. Первомайский поселок", "place": "point" }, "geometry": { "type": "Point", "coordinates": [ 60.768867601101221, 56.907351112106454 ] } },
{ "type": "Feature", "properties": { "evid": 211, "ex_type": "PZHOG", "exident": "поджог", "date": "2018\/01\/18", "time": "04:30:00", "link": "http:\/\/www.e1.ru\/news\/spool\/news_id-485623.html", "link2": null, "descrip": "Еще один расселенный барак подожги у новостроек.", "address": "г. Березовский, ул. Первомайский поселок", "place": "point" }, "geometry": { "type": "Point", "coordinates": [ 60.768424745455683, 56.907735504939367 ] } },
{ "type": "Feature", "properties": { "evid": 212, "ex_type": "PZHOG", "exident": "поджог", "date": "2017\/12\/04", "time": "вечер", "link": "http:\/\/www.e1.ru\/news\/spool\/news_id-483112.html", "link2": null, "descrip": "подожгли ауди", "address": "ул. Машиностроителей", "place": "area" }, "geometry": { "type": "Point", "coordinates": [ 60.577225186501636, 56.885112639426929 ] } },
{ "type": "Feature", "properties": { "evid": 213, "ex_type": "PZHOG", "exident": "поджог", "date": "2017\/12\/24", "time": "раннее утро", "link": "http:\/\/www.e1.ru\/news\/spool\/news_id-484430.html", "link2": null, "descrip": "Сгорели две машины.", "address": "ул. Московская, д. 88", "place": "point" }, "geometry": { "type": "Point", "coordinates": [ 60.586584580068866, 56.817260627481396 ] } },
{ "type": "Feature", "properties": { "evid": 214, "ex_type": "PZHOG", "exident": "поджог", "date": "2017\/09\/01", "time": "02:20:00", "link": "http:\/\/ngzt.ru\/auto\/view\/02-09-2017-v-chkalovskom-rayone-ekaterinburga-vo-dvore-doma-na-roshchinskoy-zagorelas-lada-priora", "link2": null, "descrip": "Поджог Лада-Приора", "address": "ул. Рощинская", "place": "point" }, "geometry": { "type": "Point", "coordinates": [ 60.67268022472242, 56.779491109036037 ] } },
{ "type": "Feature", "properties": { "evid": 215, "ex_type": "PZHOG", "exident": "поджог", "date": "2017\/11\/05", "time": "вечер", "link": "http:\/\/www.e1.ru\/news\/spool\/news_id-480828.html", "link2": null, "descrip": "Сгорело нежилое здание на месте намеченной стройки.", "address": "ул. Белинского, д. 256А", "place": "area" }, "geometry": { "type": "Point", "coordinates": [ 60.637493503479178, 56.795803838437244 ] } },
{ "type": "Feature", "properties": { "evid": 216, "ex_type": "PZHOG", "exident": "поджог", "date": "2018\/03\/25", "time": "вечер", "link": "https:\/\/www.e1.ru\/news\/spool\/news_id-54221371.html", "link2": "https:\/\/www.e1.ru\/news\/spool\/news_id-54250051.html", "descrip": "Кто-то разжег огонь на балконе в доме с деревянными перекрытиями. Собственника оштрафовали.", "address": "ул. Широкореченская", "place": "point" }, "geometry": { "type": "Point", "coordinates": [ 60.469569247137905, 56.794068875564093 ] } },
{ "type": "Feature", "properties": { "evid": 217, "ex_type": "PZHOG", "exident": "поджог", "date": "2018\/02\/06", "time": null, "link": "https:\/\/www.e1.ru\/news\/spool\/news_id-54224181.html", "link2": null, "descrip": "Поджог таунхауса в поселке \"Бухта Квинс\".", "address": "ул. Изоплитная, д. 23", "place": "point" }, "geometry": { "type": "Point", "coordinates": [ 60.729474023526137, 56.865233930669383 ] } },
{ "type": "Feature", "properties": { "evid": 218, "ex_type": "PZHOG", "exident": "поджог", "date": "2018\/03\/28", "time": "4:20", "link": "https:\/\/www.e1.ru\/news\/spool\/news_id-54233591.html", "link2": null, "descrip": "Сгорела машина. Взрывались колеса. Хояин подозревает поджог, потому как сначала загорелись колеса.", "address": "ул. Краснолесья, д. 76", "place": "point" }, "geometry": { "type": "Point", "coordinates": [ 60.531247838400496, 56.788107633643151 ] } },
{ "type": "Feature", "properties": { "evid": 219, "ex_type": "PZHOG", "exident": "поджог", "date": "2018\/03\/30", "time": "раннее утро", "link": "https:\/\/www.e1.ru\/news\/spool\/news_id-54244211.html", "link2": null, "descrip": "Загорелся пустовавший частный дом, в котором последнее время была мастерская по производству надгробий", "address": "ул. Московская, д. 263", "place": "point" }, "geometry": { "type": "Point", "coordinates": [ 60.593906788072275, 56.802935074446161 ] } },
{ "type": "Feature", "properties": { "evid": 220, "ex_type": "PZHOG", "exident": "поджог", "date": "2018\/04\/18", "time": "ночь", "link": "https:\/\/vk.com\/incekb?w=wall-14297077_618664", "link2": null, "descrip": "Рядом со стоянкой горело несколько машин. Началось с Туарега, перекинулось на другие.", "address": "ул. Рощинская, д. 44", "place": "point" }, "geometry": { "type": "Point", "coordinates": [ 60.670987696533281, 56.781474270965496 ] } },
{ "type": "Feature", "properties": { "evid": 221, "ex_type": "PZHOG", "exident": "поджог", "date": "2018\/04\/18", "time": "ночь", "link": "https:\/\/vk.com\/incekb?w=wall-14297077_618657", "link2": null, "descrip": "Загорелись разом три садовых дома в СНТ \"Малахит\" и \"Юбилейный\"", "address": "8 км. Чусовского тракта", "place": "area" }, "geometry": { "type": "Point", "coordinates": [ 60.407778829066451, 56.796338470672858 ] } },
{ "type": "Feature", "properties": { "evid": 222, "ex_type": "PZHOG", "exident": "поджог", "date": "2018\/04\/18", "time": "ночь", "link": "https:\/\/vk.com\/incekb?w=wall-14297077_618657", "link2": null, "descrip": "Загорелись разом три садовых дома в СНТ \"Малахит\" и \"Юбилейный\"", "address": "8 км. Чусовского тракта", "place": "area" }, "geometry": { "type": "Point", "coordinates": [ 60.43148190045045, 56.788855673408101 ] } },
{ "type": "Feature", "properties": { "evid": 223, "ex_type": "PZHOG", "exident": "поджог", "date": "2018\/04\/14", "time": "день", "link": "https:\/\/vk.com\/incekb?w=wall-14297077_615758", "link2": "https:\/\/www.e1.ru\/news\/spool\/news_id-54309371.html", "descrip": "Остатки частного сектора вдоль Щербакова. Горят постройки в усадьбе.", "address": "ул. Щербакова, д. 64", "place": "point" }, "geometry": { "type": "Point", "coordinates": [ 60.659753697318529, 56.778554662572965 ] } },
{ "type": "Feature", "properties": { "evid": 224, "ex_type": "PZHOG", "exident": "поджог", "date": "2018\/04\/12", "time": "15:00", "link": "https:\/\/vk.com\/incekb?w=wall-14297077_615744", "link2": "https:\/\/vk.com\/incekb?w=wall-14297077_613850", "descrip": "Пожар в брошенном деревянном доме.", "address": "ул. Лыжников, д. 14", "place": "point" }, "geometry": { "type": "Point", "coordinates": [ 60.656558970341557, 56.781781432385564 ] } },
{ "type": "Feature", "properties": { "evid": 225, "ex_type": "PZHOG", "exident": "поджог", "date": "2018\/04\/12", "time": "ночь", "link": "https:\/\/vk.com\/incekb?w=wall-14297077_613335", "link2": null, "descrip": "Подожгли купер. Свидетели видели двоих убегавших в капюшонах и масках.", "address": "ул. Циолковского, д. 27", "place": "point" }, "geometry": { "type": "Point", "coordinates": [ 60.602714273003031, 56.804088978085815 ] } },
{ "type": "Feature", "properties": { "evid": 226, "ex_type": "PZHOG", "exident": "поджог", "date": "2018\/06\/05", "time": "3:00", "link": "https:\/\/www.e1.ru\/news\/spool\/news_id-55372611.html", "link2": null, "descrip": "Второй пожар расселенного дома за сутки. Нескольпо пожаров в соседних расселенных домах.", "address": "ул. Самаркандская, д. 15", "place": "point" }, "geometry": { "type": "Point", "coordinates": [ 60.706369465343251, 56.760234235030666 ] } },
{ "type": "Feature", "properties": { "evid": 227, "ex_type": "PZHOG", "exident": "поджог", "date": "2018\/06\/04", "time": "12:00", "link": "https:\/\/www.e1.ru\/news\/spool\/news_id-55372611.html", "link2": null, "descrip": "Пожар. Нескольпо пожаров в соседних расселенных домах.", "address": "ул. Самаркандская, д. 10", "place": "point" }, "geometry": { "type": "Point", "coordinates": [ 60.705595291033475, 56.759841036701758 ] } },
{ "type": "Feature", "properties": { "evid": 228, "ex_type": "PZHOG", "exident": "поджог", "date": "2018\/06\/04", "time": "12:00", "link": "https:\/\/www.e1.ru\/news\/spool\/news_id-55372611.html", "link2": null, "descrip": "Пожар. Нескольпо пожаров в соседних расселенных домах.", "address": "пер. Высокий, д. 4", "place": "point" }, "geometry": { "type": "Point", "coordinates": [ 60.709395339779597, 56.760973470420232 ] } },
{ "type": "Feature", "properties": { "evid": 229, "ex_type": "PZHOG", "exident": "поджог", "date": "2018\/06\/04", "time": "раннее утро", "link": "https:\/\/www.e1.ru\/news\/spool\/news_id-55366881.html", "link2": null, "descrip": "Выгорело два этажа расселенного двухэтажного дома. Тут часто видели бомжей и подростков.", "address": "ул. Самаркандская, д. 19", "place": "point" }, "geometry": { "type": "Point", "coordinates": [ 60.707927931508841, 56.760411508925358 ] } },
{ "type": "Feature", "properties": { "evid": 230, "ex_type": "PZHOG", "exident": "поджог", "date": "2018\/05\/31", "time": "2:00", "link": "https:\/\/www.e1.ru\/news\/spool\/news_id-55352501.html", "link2": null, "descrip": "Неизвестные бросили автомобиль Ока на проезде между домами и подожгли его.", "address": "ул. Стачек, д. 19", "place": "point" }, "geometry": { "type": "Point", "coordinates": [ 60.625656068278808, 56.890031426193197 ] } },
{ "type": "Feature", "properties": { "evid": 349, "ex_type": "TRUPP", "exident": "труп", "date": "2017\/08\/21", "time": "ночь", "link": "http:\/\/www.e1.ru\/news\/spool\/news_id-475155.html", "link2": null, "descrip": "Нетрезвый гражданин утонул", "address": "Парк Победы", "place": "area" }, "geometry": { "type": "Point", "coordinates": [ 60.561273751983194, 56.904835966367749 ] } },
{ "type": "Feature", "properties": { "evid": 350, "ex_type": "TRUPP", "exident": "труп", "date": "2017\/10\/28", "time": "день", "link": "http:\/\/www.e1.ru\/news\/spool\/news_id-480289.html", "link2": null, "descrip": "Три трупа. Люди пили в квартире и отравились.", "address": "ул. Бисертская, д. 6А", "place": "point" }, "geometry": { "type": "Point", "coordinates": [ 60.610790537456381, 56.740575375618185 ] } },